[{"review_count": 3, "name": "Castle Tavern", "business_id": "--7PRjnsjMA6uhPK8mW13Q", "longitude": -80.0089, "stars": 2.5, "latitude": 40.3719}, {"review_count": 10, "name": "Lunasea Salon+Day Spa", "business_id": "--LzU4UT9rysIDXbhoWHiQ", "longitude": -79.9883, "stars": 4.5, "latitude": 40.4275}, {"review_count": 146, "name": "Ritters Diner", "business_id": "--UE_y6auTgq3FXlvUMkbw", "longitude": -79.9412, "stars": 3.5, "latitude": 40.4564}, {"review_count": 74, "name": "Gooski's", "business_id": "-1lvWTeV_RI1weq8FTnPRw", "longitude": -79.9665, "stars": 4.5, "latitude": 40.4568}, {"review_count": 42, "name": "Mandarin Gourmet", "business_id": "-23t2qOQWj8Kqp-Ijm1BQA", "longitude": -80.0017, "stars": 3.0, "latitude": 40.4392}, {"review_count": 3, "name": "Unlocked Global Phones", "business_id": "-2pv5J-_HN1Tu8adfRxFlg", "longitude": -79.9797, "stars": 2.5, "latitude": 40.429}, {"review_count": 100, "name": "Redbeard's On Sixth", "business_id": "-4bNlx03GsXzgkHZwTrMaw", "longitude": -80.002, "stars": 3.0, "latitude": 40.4423}, {"review_count": 23, "name": "Wang's Kitchen", "business_id": "-8wQB4T-cukbHZGO6etPMA", "longitude": -79.9751, "stars": 4.0, "latitude": 40.3732}, {"review_count": 183, "name": "Oishii Bento", "business_id": "-a22bjfNCVL0gvKpd6RakA", "longitude": -79.9572, "stars": 4.0, "latitude": 40.4419}, {"review_count": 307, "name": "Double Wide Grill", "business_id": "-b9ZUSmcsGxutDSW1DIbdA", "longitude": -79.9713, "stars": 3.5, "latitude": 40.4285}, {"review_count": 43, "name": "M-Nail Salon", "business_id": "-bKEI1KR-kCL_JPEQXOtEA", "longitude": -79.9355, "stars": 3.5, "latitude": 40.4507}, {"review_count": 6, "name": "CCAC-Allegheny", "business_id": "-bNrk2N_fgDTSVgGTWmO2g", "longitude": -80.0132, "stars": 2.5, "latitude": 40.4497}, {"review_count": 46, "name": "Hilton Garden Inn Pittsburgh University Place", "business_id": "-DN-LdQAmhtwbqZqVgFyQQ", "longitude": -79.9594, "stars": 3.0, "latitude": 40.4394}, {"review_count": 26, "name": "Razzy Fresh", "business_id": "-f7DAEshJrKyOkHJhNPQ3g", "longitude": -79.9586, "stars": 4.5, "latitude": 40.4406}, {"review_count": 21, "name": "Kiva Han", "business_id": "-Fw9yVzf-G5Awk3pZI_HNQ", "longitude": -79.9586, "stars": 4.0, "latitude": 40.4406}, {"review_count": 6, "name": "Caff\u00e8 D'Amore Catering", "business_id": "-F_j9WPbAqnp3hi00Ud1Rw", "longitude": -79.9806, "stars": 4.0, "latitude": 40.4536}, {"review_count": 51, "name": "Children's Museum of Pittsburgh", "business_id": "-Gfj1gA0Ir07zToO-4fBpw", "longitude": -80.0065, "stars": 5.0, "latitude": 40.4528}, {"review_count": 4, "name": "American Apparel", "business_id": "-gRvzDO2qEAXGUFxP2zLEw", "longitude": -79.9334, "stars": 4.0, "latitude": 40.4515}, {"review_count": 11, "name": "Honor Your Body Wellness", "business_id": "-gv8ie5mLGjLPaLm-VphGA", "longitude": -79.9819, "stars": 4.0, "latitude": 40.3583}, {"review_count": 4, "name": "Clockwise Tees", "business_id": "-HlgWSpkUtT6zyAQUPQwbw", "longitude": -79.9087, "stars": 5.0, "latitude": 40.455}, {"review_count": 16, "name": "Fort Pitt Tunnel", "business_id": "-hrcpIAhCJ8DV9SxNLmHxg", "longitude": -80.0219, "stars": 4.0, "latitude": 40.4332}, {"review_count": 5, "name": "FedEx Office Print & Ship Center", "business_id": "-IiE_sauEYO6vTo763s7iw", "longitude": -80.0465, "stars": 3.0, "latitude": 40.4194}, {"review_count": 79, "name": "East End Food Co-Op", "business_id": "-iVcmhjfq79QoTWzrb6pKg", "longitude": -79.8955, "stars": 4.5, "latitude": 40.4482}, {"review_count": 12, "name": "R Wine Cellar Urban Winery", "business_id": "-j4cyxQhg3uikKll8GspBw", "longitude": -79.9841, "stars": 4.5, "latitude": 40.4519}, {"review_count": 3, "name": "Lezzet", "business_id": "-JDr48-qoIdHB53femKgzg", "longitude": -79.9547, "stars": 4.0, "latitude": 40.4365}, {"review_count": 23, "name": "Thai Touch Kitchen", "business_id": "-k5md4Iuh3_ZuA_Z6VdZeA", "longitude": -80.044, "stars": 4.5, "latitude": 40.3813}, {"review_count": 99, "name": "Original Oyster House", "business_id": "-KQ283hJkBO12u8XOrlCcQ", "longitude": -80.002, "stars": 3.0, "latitude": 40.441}, {"review_count": 238, "name": "Spoon", "business_id": "-Mh44q324VW8mpxIdH_HPw", "longitude": -79.9252, "stars": 4.0, "latitude": 40.46}, {"review_count": 13, "name": "Bruegger's Bagels", "business_id": "-n0bDmgCCcculSyHjuTd6A", "longitude": -79.9963, "stars": 3.0, "latitude": 40.4429}, {"review_count": 60, "name": "Pleasure Bar and Restaurant", "business_id": "-Nanlb7SYXObqQ6dZ49UOg", "longitude": -79.9487, "stars": 3.0, "latitude": 40.4617}, {"review_count": 10, "name": "Salvation Army", "business_id": "-Naw6BD2h44eQu2DumKnvQ", "longitude": -79.9904, "stars": 3.0, "latitude": 40.4292}, {"review_count": 29, "name": "Mahoney's Restaurant", "business_id": "-nfzEVOVvmDSFbxvBsllGQ", "longitude": -79.9963, "stars": 2.5, "latitude": 40.4436}, {"review_count": 5, "name": "Pasta Too", "business_id": "-nO_qj9eP-os3baYyh8eNA", "longitude": -80.0065, "stars": 4.0, "latitude": 40.4558}, {"review_count": 16, "name": "Centre Ave Massage & Spa", "business_id": "-oje3Dm6XdYRVKtwalHneQ", "longitude": -79.9335, "stars": 5.0, "latitude": 40.4577}, {"review_count": 3, "name": "Quest Diagnostics", "business_id": "-PIu2L6Je0izNY60Z-PAcQ", "longitude": -80.0048, "stars": 5.0, "latitude": 40.4432}, {"review_count": 3, "name": "Burger King", "business_id": "-PlmrxnB6Wn52ILOAyfyKA", "longitude": -80.0664, "stars": 3.5, "latitude": 40.495}, {"review_count": 15, "name": "House of the Dead", "business_id": "-PV-HJpGQhKml7TrEXeyHA", "longitude": -79.9609, "stars": 4.5, "latitude": 40.4697}, {"review_count": 3, "name": "Magee Womens Hospital of UPMC", "business_id": "-qIP0OkyaPSd9kpzACkNAA", "longitude": -79.9604, "stars": 4.0, "latitude": 40.4375}, {"review_count": 21, "name": "Gold's Gym", "business_id": "-QMukwCbH8djqluG5Vulbw", "longitude": -80.0039, "stars": 3.5, "latitude": 40.4407}, {"review_count": 25, "name": "AAA", "business_id": "-raHHPz6kBnQgBH-oCuDFA", "longitude": -79.9273, "stars": 2.5, "latitude": 40.4598}, {"review_count": 28, "name": "Uncle Sam's Submarines", "business_id": "-tcf1WSfc2iNRf75AMW6pw", "longitude": -79.8927, "stars": 3.5, "latitude": 40.489}, {"review_count": 8, "name": "Sammy's Famous Corned Beef", "business_id": "-TSFapUMwdyyxoi2egkOhw", "longitude": -79.9989, "stars": 2.5, "latitude": 40.4392}, {"review_count": 3, "name": "Crazy Mocha", "business_id": "-TWpr5-XThcXv-MESKJmBg", "longitude": -79.9666, "stars": 3.5, "latitude": 40.4268}, {"review_count": 18, "name": "Fireside Caribbean Restaurant", "business_id": "-U68ZM2v6OOPtdefIonvJw", "longitude": -79.8822, "stars": 3.5, "latitude": 40.4426}, {"review_count": 94, "name": "Chinatown Inn", "business_id": "-UqxkoufE3WGTnLZV9em3w", "longitude": -79.9973, "stars": 4.0, "latitude": 40.4371}, {"review_count": 14, "name": "Bite Bistro", "business_id": "-vI0zsfDrJfTjD7OXoQJvQ", "longitude": -80.0577, "stars": 4.0, "latitude": 40.4966}, {"review_count": 547, "name": "Fat Heads Saloon", "business_id": "-vVQyTVHitF6TOHGijVXxQ", "longitude": -79.9802, "stars": 4.0, "latitude": 40.429}, {"review_count": 111, "name": "Coriander India Grill", "business_id": "-Xl2R863UWrQEyp4dSzMaA", "longitude": -79.923, "stars": 3.0, "latitude": 40.4327}, {"review_count": 58, "name": "Kous Kous Cafe", "business_id": "-XN4Oi0UCBK7rE3MsSXdqw", "longitude": -80.0442, "stars": 4.5, "latitude": 40.3814}, {"review_count": 8, "name": "Journeys of Life", "business_id": "-XU3QZBluANMAvzS9xGQAg", "longitude": -79.9337, "stars": 4.5, "latitude": 40.4507}, {"review_count": 52, "name": "Cafe Milano", "business_id": "-xUkX5hO7MrMj9OwqMQ35A", "longitude": -80.0026, "stars": 3.5, "latitude": 40.4431}, {"review_count": 5, "name": "PICT Classic Theatre", "business_id": "-xymuZ9qLUwGQBD9FxldGQ", "longitude": -79.9534, "stars": 5.0, "latitude": 40.4432}, {"review_count": 26, "name": "Reweaving & Reknitting Shop", "business_id": "-yB1gsnF4gROLFWzZEImzg", "longitude": -80.0014, "stars": 4.5, "latitude": 40.4397}, {"review_count": 18, "name": "Games Unlimited", "business_id": "-yQDkxsUbslu8a6YsDyQNg", "longitude": -79.923, "stars": 4.5, "latitude": 40.4333}, {"review_count": 10, "name": "Italian Oven Restaurant", "business_id": "-zAzFnDCwBxXG-lVA4aq6g", "longitude": -79.9821, "stars": 3.5, "latitude": 40.3675}, {"review_count": 3, "name": "Club Colony", "business_id": "-zFotxFhuF_t61LzrtW0Wg", "longitude": -80.0657, "stars": 4.0, "latitude": 40.3933}, {"review_count": 12, "name": "10th Street Tattoo and Body Piercing", "business_id": "-_BBE8W6e_l6hyNU8_ILdQ", "longitude": -79.9876, "stars": 4.0, "latitude": 40.4286}, {"review_count": 3, "name": "Chinese Acupuncture & Herbs Center LLC", "business_id": "01a4YOjiBbPUBxvgX6F7VQ", "longitude": -80.0452, "stars": 5.0, "latitude": 40.3818}, {"review_count": 3, "name": "Senge Auto Body", "business_id": "03L-fWaiSk_KiyUMm5K22Q", "longitude": -79.9091, "stars": 5.0, "latitude": 40.4672}, {"review_count": 58, "name": "Pittsburgh Barbecue Company", "business_id": "04ogq23JnzauhezrWEXG_g", "longitude": -80.0297, "stars": 4.0, "latitude": 40.4217}, {"review_count": 3, "name": "Bea Taco Town", "business_id": "04P3hZHQY4Wq7atYIkJX0Q", "longitude": -80.0001, "stars": 3.5, "latitude": 40.4374}, {"review_count": 34, "name": "V3 Flatbread Pizza", "business_id": "05FkTuKNfebc8BafSAq1Lw", "longitude": -80.003, "stars": 4.0, "latitude": 40.4424}, {"review_count": 34, "name": "Sergio's Style", "business_id": "05l84gPaZX2IWaIaoAq3hg", "longitude": -80.034, "stars": 4.5, "latitude": 40.3949}, {"review_count": 8, "name": "Avis Rent A Car", "business_id": "06SQoq5EV4XAY-yKrEtCQg", "longitude": -80.0048, "stars": 3.0, "latitude": 40.4432}, {"review_count": 78, "name": "1947 Tavern", "business_id": "079g3KpS_7j_Zw53JmD9Vg", "longitude": -79.931, "stars": 3.5, "latitude": 40.4557}, {"review_count": 8, "name": "The Colombian Spot", "business_id": "08eRFhpedodAf6atSRK09g", "longitude": -79.9768, "stars": 4.5, "latitude": 40.4288}, {"review_count": 10, "name": "CVS Pharmacy", "business_id": "08lbwQLMLaZNHRGIo5WJtQ", "longitude": -79.9519, "stars": 3.0, "latitude": 40.4519}, {"review_count": 24, "name": "Randyland", "business_id": "08Z2A6u4kmaAZYeecwA4qw", "longitude": -80.0098, "stars": 5.0, "latitude": 40.4581}, {"review_count": 289, "name": "Sonoma Grille", "business_id": "0ayh3LxJwSbJEOlBCx9APA", "longitude": -79.9965, "stars": 3.5, "latitude": 40.4444}, {"review_count": 23, "name": "ToonSeum", "business_id": "0b6OAFt85maz05EuvYd_WQ", "longitude": -79.9965, "stars": 4.0, "latitude": 40.4436}, {"review_count": 31, "name": "Joe & Pie", "business_id": "0B89ylbI0L08rgiZ5mGflw", "longitude": -79.9962, "stars": 3.5, "latitude": 40.4435}, {"review_count": 16, "name": "Strip District Meats", "business_id": "0bDp9GJBQ4K4ZTzvewLoVA", "longitude": -79.9827, "stars": 3.5, "latitude": 40.4523}, {"review_count": 8, "name": "Kim Nails", "business_id": "0chnerKDnJ1jITiwLLUB4g", "longitude": -79.9252, "stars": 4.5, "latitude": 40.4582}, {"review_count": 4, "name": "Curry Leaf Indian Bistro", "business_id": "0dAVMBoh0nK56--4dGAaDA", "longitude": -80.0006, "stars": 3.0, "latitude": 40.4377}, {"review_count": 37, "name": "SpringHill Suites Marriott", "business_id": "0DlGOTI4xXLgF2eEm_E82Q", "longitude": -80.0046, "stars": 3.5, "latitude": 40.4486}, {"review_count": 5, "name": "The Continental Smoke Shop", "business_id": "0fEjkWWbjHWuS6JX0Uampg", "longitude": -79.9233, "stars": 4.5, "latitude": 40.432}, {"review_count": 77, "name": "Ruths Chris Steak House", "business_id": "0FgwBx7pgmNdUtsd_T8UYQ", "longitude": -80.0038, "stars": 4.0, "latitude": 40.4394}, {"review_count": 168, "name": "Bluebird Kitchen", "business_id": "0FmWly56nUTg60-b5k0gTQ", "longitude": -80.0018, "stars": 4.0, "latitude": 40.4405}, {"review_count": 41, "name": "The Caf\u00e9 at the Frick", "business_id": "0GdTpvzrpDWDPiHP3G6Fuw", "longitude": -79.9023, "stars": 4.0, "latitude": 40.4466}, {"review_count": 39, "name": "Five Points Artisan Bakeshop", "business_id": "0h2My97xjAjc1pNrMM266Q", "longitude": -79.9169, "stars": 5.0, "latitude": 40.4443}, {"review_count": 56, "name": "Zarra's A Taste of Southern Italy", "business_id": "0H8Xo8XtA6GkSI2hAF0LKw", "longitude": -79.9542, "stars": 3.5, "latitude": 40.4548}, {"review_count": 5, "name": "Inspired Vitality Personal Training", "business_id": "0hUgrYgiLPd8e8TuHfoqMg", "longitude": -80.0057, "stars": 5.0, "latitude": 40.4232}, {"review_count": 82, "name": "Uncle Sam's Submarines", "business_id": "0IKwgLg_UApkFzMCAaJ1Lw", "longitude": -79.9229, "stars": 4.0, "latitude": 40.4378}, {"review_count": 30, "name": "Lebo Subs", "business_id": "0iLGx8ilwfncucnYAknzzw", "longitude": -80.0444, "stars": 4.0, "latitude": 40.382}, {"review_count": 72, "name": "BRGR", "business_id": "0Ir2L-nWFFQP3jB7fnWTuw", "longitude": -80.0521, "stars": 3.0, "latitude": 40.3572}, {"review_count": 9, "name": "PNC YMCA", "business_id": "0JGXnhfU1IpJrs3D8qtQcA", "longitude": -80.0011, "stars": 4.0, "latitude": 40.4409}, {"review_count": 6, "name": "Izzi Coiffure", "business_id": "0jTHxV1CgPb4zc0ZbrdM6w", "longitude": -79.9331, "stars": 3.5, "latitude": 40.4517}, {"review_count": 7, "name": "Poppy's Bistro and Pub", "business_id": "0k7Jno-a9OoYitWZ-KFzhw", "longitude": -79.9485, "stars": 2.5, "latitude": 40.4612}, {"review_count": 7, "name": "1902 Tavern", "business_id": "0Lsd35rHY6UtPFHjjxJ1LA", "longitude": -80.0031, "stars": 2.5, "latitude": 40.4412}, {"review_count": 3, "name": "US Post Office", "business_id": "0m9YFolf72Ooh_exnswlSA", "longitude": -79.8858, "stars": 1.5, "latitude": 40.4447}, {"review_count": 15, "name": "Gandy Dancer Saloon", "business_id": "0MmjeVacAd-Moe8CesiB_Q", "longitude": -80.0016, "stars": 4.0, "latitude": 40.431}, {"review_count": 8, "name": "Brewery, Bits and Bites Tour", "business_id": "0MMksZmyQKBcb0PNi4LdTg", "longitude": -79.9486, "stars": 5.0, "latitude": 40.4619}, {"review_count": 4, "name": "Mt Lebanon Shoe Repair", "business_id": "0MoMka1ixKRuyFhTtDVT0A", "longitude": -80.0443, "stars": 5.0, "latitude": 40.3804}, {"review_count": 4, "name": "Au Bon Pain Co", "business_id": "0mYlBBYkKTk4prNj7tsBlQ", "longitude": -80.0039, "stars": 3.5, "latitude": 40.4418}, {"review_count": 12, "name": "1311", "business_id": "0NcAGBrIXSde76VNgtSj6g", "longitude": -79.9848, "stars": 4.0, "latitude": 40.429}, {"review_count": 6, "name": "Bondstreet Shoes", "business_id": "0o1gpZAXTgK52hisWAUDBA", "longitude": -79.9326, "stars": 4.0, "latitude": 40.4518}, {"review_count": 14, "name": "Vinny's Pizza", "business_id": "0O5yuql5sNG1L_bpHb553g", "longitude": -80.0222, "stars": 2.5, "latitude": 40.395}, {"review_count": 42, "name": "Il Tetto:  A Rooftop Beer Garden", "business_id": "0ORPehdGZci1Z_BTKe_5VA", "longitude": -79.9964, "stars": 3.0, "latitude": 40.444}, {"review_count": 6, "name": "Rangos Omnimax Theater", "business_id": "0Ov1O2Gd0dwjkSaj5NJbhg", "longitude": -80.0176, "stars": 4.5, "latitude": 40.4456}, {"review_count": 31, "name": "Embury", "business_id": "0OXrM5rp0dT8DcxqQJMBXw", "longitude": -79.9816, "stars": 4.0, "latitude": 40.4525}, {"review_count": 3, "name": "Oakland Aesthetic Dentistry", "business_id": "0pFTQ1QRfCb106BF6kI2Ug", "longitude": -79.9486, "stars": 5.0, "latitude": 40.4479}, {"review_count": 185, "name": "Steel Cactus", "business_id": "0QkkNagJaWllynycTF-fRQ", "longitude": -79.9336, "stars": 2.5, "latitude": 40.4514}, {"review_count": 12, "name": "Shadyside Market & Deli", "business_id": "0qOcbknxi72ZcF-z4VOtDQ", "longitude": -79.9349, "stars": 4.0, "latitude": 40.4507}, {"review_count": 4, "name": "Fresh Corner", "business_id": "0rGKsDpXf8H2fLaDEwWa4Q", "longitude": -80.0034, "stars": 3.5, "latitude": 40.4419}, {"review_count": 7, "name": "The Salvation Army", "business_id": "0rJ2_hPk1ph_SPKUni3mlA", "longitude": -79.9901, "stars": 4.0, "latitude": 40.4287}, {"review_count": 3, "name": "Magical Hands Massage Therapy", "business_id": "0SfTGr4NxsmkIsrjQtDFzQ", "longitude": -79.9219, "stars": 5.0, "latitude": 40.4585}, {"review_count": 16, "name": "Two Louie's Market", "business_id": "0sGhloiZf62hF_OTaahS1A", "longitude": -79.9918, "stars": 4.5, "latitude": 40.4464}, {"review_count": 13, "name": "Phantom of the Attic", "business_id": "0sjCmXrP8WtfUujjeL6TRg", "longitude": -79.9485, "stars": 4.5, "latitude": 40.4449}, {"review_count": 4, "name": "Pittsburgh Indoor Tennis Club", "business_id": "0sSHuXYIuJ5iy8eSCAq4gg", "longitude": -79.9236, "stars": 4.0, "latitude": 40.4597}, {"review_count": 21, "name": "Point Breeze Veterinary Clinic", "business_id": "0TvxDhCKPQ-_dDyffEnJQQ", "longitude": -79.9143, "stars": 4.0, "latitude": 40.4502}, {"review_count": 172, "name": "Paris 66", "business_id": "0V7lC5Xr9dVFbjXpXFbeow", "longitude": -79.9243, "stars": 3.5, "latitude": 40.46}, {"review_count": 10, "name": "Zoom Dry Cleaners", "business_id": "0W6RA-U17jd2J4A9s3QQVQ", "longitude": -79.9237, "stars": 4.5, "latitude": 40.4152}, {"review_count": 9, "name": "Moxie Photo Booth Rental", "business_id": "0WcZsrpVXoqSYWTa7kToaQ", "longitude": -79.9608, "stars": 5.0, "latitude": 40.4338}, {"review_count": 13, "name": "Dunkin' Donuts", "business_id": "0WZ4-uFX5olbCYGSOO6C6Q", "longitude": -80.0357, "stars": 2.5, "latitude": 40.3941}, {"review_count": 3, "name": "Pennzoil 10 Minute Oil Change Center", "business_id": "0zO219KZJf-5QsRNRMmELQ", "longitude": -80.044, "stars": 2.0, "latitude": 40.4004}, {"review_count": 7, "name": "Maldini's Taste of Italy", "business_id": "0_BIIfLeB9DEG8Tss6bZQQ", "longitude": -79.8904, "stars": 3.5, "latitude": 40.4218}, {"review_count": 4, "name": "Get Go Fuel Station", "business_id": "1-gH8mTUpl_nQhTQmOgS4Q", "longitude": -80.0588, "stars": 3.0, "latitude": 40.3905}, {"review_count": 3, "name": "Suburban Dry Cleaners", "business_id": "106U0pNBlmR5uekLzOTdBg", "longitude": -80.0493, "stars": 2.5, "latitude": 40.3886}, {"review_count": 4, "name": "Bp Oil Company", "business_id": "10h1-hmX5q3XT4XnRBJhMg", "longitude": -79.9882, "stars": 1.0, "latitude": 40.4285}, {"review_count": 41, "name": "Fuku Tea", "business_id": "13aQBVZEbO5MzGrmDJ0IVw", "longitude": -79.9568, "stars": 4.0, "latitude": 40.4415}, {"review_count": 103, "name": "Giovanni's Pizza & Pasta", "business_id": "14gY1iJ-KRnERxHj4ONasA", "longitude": -80.0025, "stars": 3.5, "latitude": 40.4434}, {"review_count": 155, "name": "The Pub Chip Shop", "business_id": "14JrDlEb7SMK_ZHrS80lFA", "longitude": -79.9794, "stars": 4.5, "latitude": 40.4284}, {"review_count": 14, "name": "Starbucks", "business_id": "15I-8lBqswpncTCGWJNDLQ", "longitude": -79.935, "stars": 3.5, "latitude": 40.451}, {"review_count": 67, "name": "Dean of Shadyside Salon", "business_id": "17Zp0inFGLaQsxMBapdh4Q", "longitude": -79.9382, "stars": 4.0, "latitude": 40.4559}, {"review_count": 5, "name": "Monro Muffler Brake & Service", "business_id": "1832nYQjzdvwzQNlXkU39w", "longitude": -79.9552, "stars": 2.5, "latitude": 40.4344}, {"review_count": 41, "name": "Bread and Salt", "business_id": "18922Xj4KzD0ChYRMmWldA", "longitude": -79.9505, "stars": 3.5, "latitude": 40.4613}, {"review_count": 14, "name": "Eyetique", "business_id": "18n0azQi_J7GltjGLenx3g", "longitude": -79.9349, "stars": 4.0, "latitude": 40.4508}, {"review_count": 12, "name": "Primanti Brothers at PNC Park", "business_id": "1arFPq3HVIPnGkIVw6RAJw", "longitude": -80.0046, "stars": 2.5, "latitude": 40.4469}, {"review_count": 4, "name": "Einstein Bros Bagels", "business_id": "1BENUN27sstbY6J4z52KFQ", "longitude": -79.9953, "stars": 3.5, "latitude": 40.4421}, {"review_count": 13, "name": "Kiln N Time", "business_id": "1CAMCc3ewHXosPqYsYluWg", "longitude": -79.9615, "stars": 4.5, "latitude": 40.4648}, {"review_count": 4, "name": "The Cocktail Chef", "business_id": "1DBHAuTvuSCFykcPa8xFVA", "longitude": -80.0179, "stars": 5.0, "latitude": 40.3925}, {"review_count": 24, "name": "Fu Lai Chinese Restaurant", "business_id": "1E53rS8afK2jiLod8Jwy7A", "longitude": -80.0031, "stars": 2.5, "latitude": 40.4428}, {"review_count": 7, "name": "Rivas Nicaraguan Restaurant", "business_id": "1eTtHfanVJKovviZgCumyA", "longitude": -79.9934, "stars": 3.5, "latitude": 40.4287}, {"review_count": 3, "name": "River City Inn", "business_id": "1F83eUuzmPW6PVGJtDgcQA", "longitude": -80.0033, "stars": 3.5, "latitude": 40.4392}, {"review_count": 3, "name": "TCBY Yogurt", "business_id": "1FbnUyUXZ5p6sgUqx4qJnQ", "longitude": -79.9817, "stars": 4.5, "latitude": 40.3665}, {"review_count": 5, "name": "Verdetto's Bar & Restaurant", "business_id": "1fSlarYpCHK7gGeQ02CiMg", "longitude": -79.9969, "stars": 4.0, "latitude": 40.4553}, {"review_count": 101, "name": "Thin Man Sandwich Shop", "business_id": "1Gu4Ei5MRllLM4y18CB3sg", "longitude": -79.9838, "stars": 4.0, "latitude": 40.4521}, {"review_count": 53, "name": "Luma Restaurant", "business_id": "1gyztgqbLEGnBY9wJCQKRw", "longitude": -80.0408, "stars": 4.0, "latitude": 40.3774}, {"review_count": 33, "name": "Rialto Pizza", "business_id": "1HejWsAvJ7pg3n6hUCObmA", "longitude": -79.9388, "stars": 4.0, "latitude": 40.4264}, {"review_count": 3, "name": "Athleta", "business_id": "1iHw75jgHQSCfUaR6mgwEg", "longitude": -79.9342, "stars": 4.5, "latitude": 40.4507}, {"review_count": 4, "name": "Carnegie Library of Pittsburgh - East Liberty", "business_id": "1IwQhGGOrVNGGQskR_3uLw", "longitude": -79.9265, "stars": 5.0, "latitude": 40.461}, {"review_count": 153, "name": "Silk Elephant", "business_id": "1JcoUEPkcGQtCEed-OdezQ", "longitude": -79.923, "stars": 4.0, "latitude": 40.4378}, {"review_count": 60, "name": "Walnut Grill", "business_id": "1jl3G4VZjkEVboD7cUZ0gQ", "longitude": -80.0447, "stars": 3.0, "latitude": 40.3809}, {"review_count": 31, "name": "Panther Hollow Inn", "business_id": "1Kcg-u0tDxHdyHIyEkMMqA", "longitude": -79.9481, "stars": 3.5, "latitude": 40.4447}, {"review_count": 6, "name": "Brentwood Library", "business_id": "1KHDNcJB-ziCAevpX-tfIQ", "longitude": -79.975, "stars": 3.5, "latitude": 40.3749}, {"review_count": 82, "name": "Squirrel Hill Cafe", "business_id": "1Kuuu75LVwr5-1OQ3Zv71w", "longitude": -79.9227, "stars": 4.0, "latitude": 40.4379}, {"review_count": 20, "name": "Biergarten", "business_id": "1LPNPA4_WouhQweXI-X6gQ", "longitude": -79.9964, "stars": 3.0, "latitude": 40.4414}, {"review_count": 3, "name": "Beers of the Burgh at PNC Park", "business_id": "1LrNuxTU2e0v3lEW9VLZEA", "longitude": -80.0072, "stars": 3.5, "latitude": 40.4475}, {"review_count": 3, "name": "La Pizza Bella", "business_id": "1Ma08mOkfr6egCRFixawtQ", "longitude": -79.8626, "stars": 4.5, "latitude": 40.4928}, {"review_count": 12, "name": "Juice Box Cafe", "business_id": "1mCFRovRzuNNgXNf_YDhkw", "longitude": -79.9322, "stars": 4.0, "latitude": 40.4521}, {"review_count": 4, "name": "Shining Light Prenatal Education", "business_id": "1md5jVWAiBUtOIoJ0Ca5lA", "longitude": -79.9648, "stars": 4.0, "latitude": 40.4664}, {"review_count": 44, "name": "Port Authority of Allegheny County", "business_id": "1n0n_-Iz0e3iVpH8sereiA", "longitude": -79.9284, "stars": 2.5, "latitude": 40.4581}, {"review_count": 9, "name": "Groovy Maid", "business_id": "1NS8LMWuiOgCVb_vACWdGQ", "longitude": -80.0208, "stars": 4.5, "latitude": 40.3906}, {"review_count": 15, "name": "Feeney's Weenies", "business_id": "1o0zpZW-8TiA5qRtMzU9xw", "longitude": -80.0301, "stars": 4.5, "latitude": 40.4054}, {"review_count": 3, "name": "Cathy's Custom Cakes", "business_id": "1OHkuQ8EjvWyC4q8HfMaag", "longitude": -79.9959, "stars": 3.5, "latitude": 40.4406}, {"review_count": 52, "name": "Zaw's Asian Foods", "business_id": "1PB9xsunCoSccTmAvjMlhA", "longitude": -79.9231, "stars": 4.0, "latitude": 40.4333}, {"review_count": 7, "name": "Regency Cleaners", "business_id": "1PcoOrAavnik-f_Epp9v0A", "longitude": -79.8942, "stars": 1.5, "latitude": 40.4325}, {"review_count": 4, "name": "Phillips Heating & Ac Company", "business_id": "1PTVqxN0eMfRbsEyRaMd7w", "longitude": -79.9864, "stars": 3.0, "latitude": 40.4219}, {"review_count": 30, "name": "Pageboy Salon & Boutique", "business_id": "1Q7y7IIkE6yCr6IVl1lBSg", "longitude": -79.9652, "stars": 4.5, "latitude": 40.4658}, {"review_count": 6, "name": "Wendy's", "business_id": "1QhIsblyEViEWc53FmxH_Q", "longitude": -79.8906, "stars": 2.5, "latitude": 40.4869}, {"review_count": 94, "name": "The Coffee Tree Roasters", "business_id": "1qUYk564SajvwTtkNM6KJA", "longitude": -79.9327, "stars": 3.5, "latitude": 40.4513}, {"review_count": 10, "name": "New Hazlett Theater", "business_id": "1qZsGIUvAu9KAi4widEAuQ", "longitude": -80.0046, "stars": 4.0, "latitude": 40.4524}, {"review_count": 7, "name": "Carol's Confections", "business_id": "1ROn1nUafuPbp3sx6FX7JQ", "longitude": -80.0079, "stars": 3.0, "latitude": 40.4348}, {"review_count": 22, "name": "Carmike Galleria 6", "business_id": "1RV8xKft7cvG-OjED8_RIg", "longitude": -80.0521, "stars": 3.0, "latitude": 40.3572}, {"review_count": 5, "name": "Cost Cutters", "business_id": "1tSzow6N3xDM4t5sCkDY1g", "longitude": -79.9872, "stars": 4.0, "latitude": 40.3917}, {"review_count": 11, "name": "Paint Monkey", "business_id": "1uBT6mhp4SWa0aaBny39Og", "longitude": -79.9615, "stars": 5.0, "latitude": 40.4691}, {"review_count": 50, "name": "Taste of Dahntahn", "business_id": "1uMpsCZjnKHEaPdrxAMY-Q", "longitude": -80.0026, "stars": 3.0, "latitude": 40.442}, {"review_count": 5, "name": "Junior League of Pittsburgh", "business_id": "1up3nbbWu9cenLZ04ouTHA", "longitude": -79.9483, "stars": 4.5, "latitude": 40.461}, {"review_count": 89, "name": "Little Tokyo Bistro", "business_id": "1uPTCXmcAVujpLs1ieLUzg", "longitude": -79.9753, "stars": 4.0, "latitude": 40.4282}, {"review_count": 81, "name": "Joe's Crab Shack", "business_id": "1u_8Lk1_0UsTmjW6b12bpw", "longitude": -80.0043, "stars": 3.0, "latitude": 40.4339}, {"review_count": 152, "name": "Aiello's Pizza", "business_id": "1vK7gWQ_b5ehAyOidOsYtg", "longitude": -79.9233, "stars": 4.0, "latitude": 40.4332}, {"review_count": 52, "name": "Benihana", "business_id": "1vQLTKwmcmZXtNzfKEvMmA", "longitude": -80.0703, "stars": 3.0, "latitude": 40.3923}, {"review_count": 11, "name": "Popeyes Kitchen Louisiana", "business_id": "1wCyM-brDWQNxrJajO7QXw", "longitude": -79.977, "stars": 3.5, "latitude": 40.4303}, {"review_count": 5, "name": "Ice Castle", "business_id": "1wgd9o7LQAWfb7E6Vw_wOQ", "longitude": -80.0266, "stars": 2.5, "latitude": 40.3661}, {"review_count": 3, "name": "Penn-Garrison", "business_id": "1wtfowSdeofDBLrW3P7m5Q", "longitude": -79.9978, "stars": 2.5, "latitude": 40.444}, {"review_count": 5, "name": "Amazing Yoga", "business_id": "1XbfQUedmxYDHcI5LTkqFw", "longitude": -79.9611, "stars": 3.5, "latitude": 40.4694}, {"review_count": 8, "name": "Ten Thousand Villages", "business_id": "1z9P8mDays0A7AfRe16ojw", "longitude": -79.9221, "stars": 4.5, "latitude": 40.4379}, {"review_count": 4, "name": "WAGG-n-WALK", "business_id": "1ZFF91mtyziV5DTkjLfucw", "longitude": -79.9959, "stars": 5.0, "latitude": 40.4406}, {"review_count": 101, "name": "Tonic Bar & Grill", "business_id": "1zKH87sjLpRr8XDKmk7j1g", "longitude": -79.9955, "stars": 3.5, "latitude": 40.4439}, {"review_count": 5, "name": "No Name Coffee Shop", "business_id": "1_HITbR0p1FfH0ga-q9uPA", "longitude": -80.0231, "stars": 3.5, "latitude": 40.3959}, {"review_count": 3, "name": "First Niagara Bank", "business_id": "2-7GIhk2qD_Xh_TzJBzUMA", "longitude": -79.9241, "stars": 3.0, "latitude": 40.4631}, {"review_count": 181, "name": "Tamarind", "business_id": "2-T_D2lIL5Ub2G_U2crtrQ", "longitude": -79.952, "stars": 4.0, "latitude": 40.4511}, {"review_count": 31, "name": "X Shadyside", "business_id": "20DyG_lwW8ymzA-0dhQpsA", "longitude": -79.9317, "stars": 3.5, "latitude": 40.4516}, {"review_count": 6, "name": "Market On Broadway IGA", "business_id": "21hqlWgjmNgW4pBZJDuziQ", "longitude": -80.025, "stars": 3.0, "latitude": 40.41}, {"review_count": 28, "name": "Urban Active Fitness", "business_id": "23xaQMfVTszfXxzP8NdN3w", "longitude": -79.9154, "stars": 3.5, "latitude": 40.457}, {"review_count": 9, "name": "Le Pommier", "business_id": "247GgHoZztRikNUeKjkEmQ", "longitude": -79.976, "stars": 3.5, "latitude": 40.4283}, {"review_count": 18, "name": "Love Yogurt", "business_id": "24t1XrFKY0ldSD1hOKnTew", "longitude": -79.9752, "stars": 4.5, "latitude": 40.4282}, {"review_count": 20, "name": "Starbucks", "business_id": "26HlCqrwTikf-n5FXRS8qw", "longitude": -79.984, "stars": 3.5, "latitude": 40.4286}, {"review_count": 4, "name": "Gosia's Pierogies", "business_id": "2a8ieC69UOfI7XE9j16Kgg", "longitude": -79.9868, "stars": 3.5, "latitude": 40.4504}, {"review_count": 43, "name": "Pastoli's Pizza, Pasta & Paisans", "business_id": "2az1lqshQswSRphVBAt41Q", "longitude": -79.923, "stars": 4.5, "latitude": 40.4359}, {"review_count": 18, "name": "Amtrak", "business_id": "2bBxE8pEbLBETejCi_aBeg", "longitude": -79.9924, "stars": 3.0, "latitude": 40.4442}, {"review_count": 46, "name": "Mitchell's Fish Market", "business_id": "2bFrNEhlNjFA7aqJyYBXmw", "longitude": -80.0513, "stars": 3.5, "latitude": 40.3572}, {"review_count": 24, "name": "Sam's Sun Sandwich", "business_id": "2Bl_6x4SN6TSuHBafIFgqw", "longitude": -79.9785, "stars": 5.0, "latitude": 40.3849}, {"review_count": 22, "name": "Pita Pit", "business_id": "2ChkhRUwGbneeCzaWCaJxg", "longitude": -79.9995, "stars": 4.0, "latitude": 40.439}, {"review_count": 6, "name": "Don's Diner", "business_id": "2cupks8QYzFpMYDiysGOug", "longitude": -80.0373, "stars": 5.0, "latitude": 40.4716}, {"review_count": 14, "name": "Crazy Mocha Coffee", "business_id": "2CVv0URvnKNXA5EfeEb9Eg", "longitude": -79.9352, "stars": 3.5, "latitude": 40.458}, {"review_count": 9, "name": "Gluten Free Goat Bakery", "business_id": "2DgtpHdWPwUenOwwpQdkrQ", "longitude": -79.9451, "stars": 4.5, "latitude": 40.4654}, {"review_count": 11, "name": "Sweetlix", "business_id": "2e0IF83DL8rdZfTGLmmH8A", "longitude": -79.9981, "stars": 3.0, "latitude": 40.4427}, {"review_count": 17, "name": "B&T Salon and Spa", "business_id": "2e46okUeZWV0eKn1tYY8ug", "longitude": -80.0008, "stars": 2.5, "latitude": 40.4407}, {"review_count": 118, "name": "Vietnam's Pho", "business_id": "2EEmhVhG5SCt8dEo5zf-Hg", "longitude": -79.9869, "stars": 3.5, "latitude": 40.4495}, {"review_count": 14, "name": "Schenley Park", "business_id": "2f99eqxFG2osiQVCdiCS_g", "longitude": -79.936, "stars": 5.0, "latitude": 40.4331}, {"review_count": 12, "name": "Fix-it-Frank", "business_id": "2gHFYehV_dZDBq7v7Fu7Sg", "longitude": -80.0494, "stars": 4.5, "latitude": 40.494}, {"review_count": 4, "name": "Panther Hollow Trail", "business_id": "2gL3GgBLYN38jhthkehGXA", "longitude": -79.9504, "stars": 4.0, "latitude": 40.439}, {"review_count": 14, "name": "Young's Oriental Grocery Store", "business_id": "2i5ttyWIY-VPfp4dgWb5Cw", "longitude": -79.9229, "stars": 3.0, "latitude": 40.4297}, {"review_count": 7, "name": "Shady Hill Chiropractic Clinic", "business_id": "2i6lkGef2_GMudi6SbRX2w", "longitude": -79.9219, "stars": 5.0, "latitude": 40.4585}, {"review_count": 275, "name": "The Dor-Stop Restaurant", "business_id": "2Igiyhi82R8_QaaPplRmCw", "longitude": -80.0347, "stars": 4.5, "latitude": 40.396}, {"review_count": 27, "name": "Cruze Bar", "business_id": "2jSTkJa3wLO0aE0uI3lpzw", "longitude": -79.9875, "stars": 3.0, "latitude": 40.4495}, {"review_count": 322, "name": "P&G's Pamela's Diner", "business_id": "2K-XaFjaHUR8Dp6QAihITg", "longitude": -79.9837, "stars": 4.0, "latitude": 40.452}, {"review_count": 3, "name": "Keystone Cafe", "business_id": "2K52MBo_VfymVw5qVwGcSA", "longitude": -79.9699, "stars": 4.5, "latitude": 40.4338}, {"review_count": 66, "name": "Monterey Pub", "business_id": "2KiXw5gtGJfDK1jw9jJ5wA", "longitude": -80.0132, "stars": 4.5, "latitude": 40.4556}, {"review_count": 3, "name": "Crossfit Pittsburgh", "business_id": "2LB03jEM_kCcMteoGrbJ9A", "longitude": -79.911, "stars": 5.0, "latitude": 40.4582}, {"review_count": 18, "name": "Berlin Street Food", "business_id": "2MUQomm9dx3BU0X6s11xGQ", "longitude": -79.9445, "stars": 4.0, "latitude": 40.4672}, {"review_count": 6, "name": "Koda Bridal", "business_id": "2NTA4ZqSooVfBpnkEOtsvA", "longitude": -80.0433, "stars": 4.5, "latitude": 40.3883}, {"review_count": 7, "name": "Ichiban Hibachi Steakhouse", "business_id": "2o9Q_POBRcApxLCNcuSWvA", "longitude": -79.8868, "stars": 3.0, "latitude": 40.487}, {"review_count": 4, "name": "Bucci Jewelry", "business_id": "2ogxlmNxcE4yTJt9BAH8wQ", "longitude": -79.9994, "stars": 5.0, "latitude": 40.4428}, {"review_count": 6, "name": "Kiev", "business_id": "2OhBwi83GEBlarsr4pEnWA", "longitude": -79.9287, "stars": 4.0, "latitude": 40.4225}, {"review_count": 24, "name": "Kevin's Deli", "business_id": "2Ol5IT7nu5WBm0ldD-ERKA", "longitude": -79.9507, "stars": 4.5, "latitude": 40.447}, {"review_count": 4, "name": "La Prima Espresso", "business_id": "2P7_yT5KGyY3b6ikkyHb3w", "longitude": -79.9457, "stars": 4.0, "latitude": 40.4427}, {"review_count": 3, "name": "U.S. Steel Tower", "business_id": "2pciM3LLPSODnu0cvHp0cg", "longitude": -79.9952, "stars": 4.5, "latitude": 40.4415}, {"review_count": 95, "name": "Page Dairy Mart", "business_id": "2PfavOTufsPCRdYm-bFcpw", "longitude": -79.9559, "stars": 4.5, "latitude": 40.4115}, {"review_count": 32, "name": "Rex Theater", "business_id": "2pN9BQ0kPWjPZbTXc_NANg", "longitude": -79.9826, "stars": 4.0, "latitude": 40.4287}, {"review_count": 5, "name": "Mattiniero", "business_id": "2PzCVpZN7-xWGGG3a97x0g", "longitude": -80.0014, "stars": 3.0, "latitude": 40.4411}, {"review_count": 6, "name": "Nana's Hot Dog Shop", "business_id": "2qPTMjevPpL277yfFfGvFw", "longitude": -80.0065, "stars": 4.0, "latitude": 40.4559}, {"review_count": 59, "name": "Laundry Factory", "business_id": "2sNSF2ttXEQKV7gADC6-Pw", "longitude": -79.9291, "stars": 4.0, "latitude": 40.4576}, {"review_count": 276, "name": "Casbah", "business_id": "2SwC8wqpZC4B9iFVTgYT9A", "longitude": -79.9248, "stars": 4.0, "latitude": 40.4581}, {"review_count": 10, "name": "Schmeler R Christina, DDS", "business_id": "2SXcJT4yW9EQoEuNI1hmaw", "longitude": -79.9324, "stars": 1.0, "latitude": 40.4575}, {"review_count": 37, "name": "Megabus", "business_id": "2t95Yic-ll4hdjTA6_Qy_g", "longitude": -79.9963, "stars": 3.0, "latitude": 40.4458}, {"review_count": 3, "name": "Snyder D Glenn, DMD", "business_id": "2tmjOyIS06QxaRkX4VZ-EA", "longitude": -79.8536, "stars": 4.5, "latitude": 40.4214}, {"review_count": 5, "name": "Quaker Steak & Lube", "business_id": "2tXpqXexE-rn2iDRutiBXQ", "longitude": -80.0042, "stars": 3.5, "latitude": 40.4481}, {"review_count": 152, "name": "OTB Bicycle Caf\u00e9", "business_id": "2UUkXa45Vgk_TfCP6kmfSw", "longitude": -79.9691, "stars": 3.5, "latitude": 40.4274}, {"review_count": 5, "name": "DeLuca's Bakery", "business_id": "2VNHbRpwZn2tg0zrckydXQ", "longitude": -80.0226, "stars": 4.0, "latitude": 40.3952}, {"review_count": 8, "name": "Soul Food Connection", "business_id": "2vp3ZAysnItVdkv_eX_ZvQ", "longitude": -79.8854, "stars": 4.5, "latitude": 40.4425}, {"review_count": 36, "name": "Howl at the Moon", "business_id": "2X32M84ejYIAC6HsrT2gpw", "longitude": -80.0002, "stars": 3.0, "latitude": 40.4439}, {"review_count": 288, "name": "D's Six Pax & Dogz", "business_id": "2X5G4Ujq0s4Wfn4TC7gX0g", "longitude": -79.8938, "stars": 4.5, "latitude": 40.432}, {"review_count": 12, "name": "Ambiance Hair & Nails", "business_id": "2yFs12GaXOGlYTKKm99NlQ", "longitude": -80.0072, "stars": 4.5, "latitude": 40.4566}, {"review_count": 63, "name": "Houlihan's", "business_id": "2Yv6Tgb5mpoEo3_EIpKs3g", "longitude": -80.0046, "stars": 3.0, "latitude": 40.433}, {"review_count": 12, "name": "St. Clair Hospital", "business_id": "2Z9DgvDOBEf5JhdWpeATmg", "longitude": -80.0666, "stars": 4.5, "latitude": 40.3781}, {"review_count": 13, "name": "Keystone Cafe & Deli", "business_id": "2zcGwt0ApFMZhD2TH_voGw", "longitude": -79.9983, "stars": 4.0, "latitude": 40.4418}, {"review_count": 73, "name": "Naya Cuisine", "business_id": "30T84H-0b9-Ft0KqbpKmKQ", "longitude": -79.923, "stars": 4.0, "latitude": 40.4342}, {"review_count": 29, "name": "Osaka", "business_id": "30yHpGZufQvUkATZPv5wEw", "longitude": -80.0712, "stars": 3.5, "latitude": 40.3905}, {"review_count": 4, "name": "Taco Bell", "business_id": "31cEXlDSos9C7FNtwtQHIw", "longitude": -79.895, "stars": 3.5, "latitude": 40.4875}, {"review_count": 5, "name": "Seven Cee's", "business_id": "34TBKRXYq1JHe4kYlHW2Eg", "longitude": -79.9485, "stars": 4.0, "latitude": 40.4617}, {"review_count": 4, "name": "Wine and Spirits", "business_id": "35CKLsZKk1KkyOzUn_cUXg", "longitude": -80.001, "stars": 3.0, "latitude": 40.4535}, {"review_count": 3, "name": "IHOP", "business_id": "360u8cswdmyyo13jhvx0nw", "longitude": -80.0473, "stars": 3.0, "latitude": 40.4382}, {"review_count": 5, "name": "Three Rivers Regatta", "business_id": "36a2h_kADYEoBOr3rtaj1Q", "longitude": -80.0435, "stars": 4.0, "latitude": 40.428}, {"review_count": 12, "name": "Kelly's Korner", "business_id": "36IRBzrYrVnUI-aC8qytCQ", "longitude": -79.9569, "stars": 4.0, "latitude": 40.4707}, {"review_count": 22, "name": "Wheel House", "business_id": "39zsyVps1bjZH-Seunc5OA", "longitude": -80.0231, "stars": 3.0, "latitude": 40.4466}, {"review_count": 15, "name": "Love Yogurt", "business_id": "3aErwj6fPsGAludtm8fXMA", "longitude": -79.9566, "stars": 4.0, "latitude": 40.4405}, {"review_count": 9, "name": "Hong Kong Taste", "business_id": "3aR6QgHT4AFMsNG9e4T4xA", "longitude": -79.9439, "stars": 2.5, "latitude": 40.4968}, {"review_count": 14, "name": "The Elbow Room", "business_id": "3BEZbHJScOtLef2PrkUwxQ", "longitude": -79.9312, "stars": 4.0, "latitude": 40.4556}, {"review_count": 59, "name": "Sidelines Bar & Grill", "business_id": "3BNomgNXuzR-Yfc2LbY6sQ", "longitude": -79.9723, "stars": 4.0, "latitude": 40.4855}, {"review_count": 3, "name": "Mt Lebanon Dermatology, PC", "business_id": "3bYjgNsMC8nxsq6T4RoQdA", "longitude": -80.0447, "stars": 3.5, "latitude": 40.3809}, {"review_count": 3, "name": "Wine & Spirits Store", "business_id": "3dI-wF9TFDwK_vQqqlUPJw", "longitude": -79.9609, "stars": 2.5, "latitude": 40.4694}, {"review_count": 8, "name": "Melwood Screening Room, Pittsburgh Filmmakers", "business_id": "3DjJENjeQGqNyW6zOHfEDg", "longitude": -79.9535, "stars": 4.0, "latitude": 40.4559}, {"review_count": 11, "name": "S Bar", "business_id": "3dtZprG08noZiOuHc5WoUA", "longitude": -79.9814, "stars": 3.0, "latitude": 40.4291}, {"review_count": 4, "name": "Carnegie Library of Pittsburgh", "business_id": "3DzOW0I3EwntAKFaDl_T0w", "longitude": -79.9591, "stars": 4.5, "latitude": 40.4676}, {"review_count": 6, "name": "Fine Wine & Good Spirits", "business_id": "3EMEYlCxPiygL4Tu_z9beQ", "longitude": -79.8908, "stars": 5.0, "latitude": 40.4887}, {"review_count": 3, "name": "Diane J Karnavas, DMD", "business_id": "3FUUb4SjXJc5BkZr2Jpgdg", "longitude": -80.0338, "stars": 3.5, "latitude": 40.395}, {"review_count": 16, "name": "Pons Auto Body & Service", "business_id": "3G18oXcJMEtuvMf8NNBSIg", "longitude": -79.9509, "stars": 4.0, "latitude": 40.4256}, {"review_count": 8, "name": "Garfield Artworks", "business_id": "3G8_qVxaTkkO5b70_H8YDA", "longitude": -79.944, "stars": 3.0, "latitude": 40.4654}, {"review_count": 10, "name": "McQuarters Realty Company Inc", "business_id": "3gkoiMbPT1Ayn1dyev-9Tw", "longitude": -79.9335, "stars": 2.5, "latitude": 40.4577}, {"review_count": 5, "name": "Harry's Barber Shoppe", "business_id": "3hFBk9lLFTC2HeRprtfusw", "longitude": -79.9234, "stars": 5.0, "latitude": 40.4316}, {"review_count": 4, "name": "Neighborhood Consignment", "business_id": "3IrRT8CD9xmJIkjwpfY_UA", "longitude": -79.9248, "stars": 4.5, "latitude": 40.4282}, {"review_count": 11, "name": "Zhang's Relaxation Centre", "business_id": "3ItRaXWNjwDbwCjp2yQICQ", "longitude": -79.9281, "stars": 4.5, "latitude": 40.4577}, {"review_count": 7, "name": "The Bar 2132", "business_id": "3Iv8lruEzrPVw8RR6I8ybg", "longitude": -79.975, "stars": 3.0, "latitude": 40.4284}, {"review_count": 3, "name": "Cool Beans Coffee", "business_id": "3jPNfiRYdu-tlJM4OGF3og", "longitude": -79.9947, "stars": 3.0, "latitude": 40.4442}, {"review_count": 132, "name": "Cafe Du Jour", "business_id": "3KCL_Bu8mOk-h7Bp-IXL8Q", "longitude": -79.9871, "stars": 4.5, "latitude": 40.4289}, {"review_count": 3, "name": "St Mary of Mercy Church", "business_id": "3kl25XEmET3SM-6jIa9-MQ", "longitude": -80.0044, "stars": 4.5, "latitude": 40.4397}, {"review_count": 3, "name": "Dunkin' Donuts", "business_id": "3kXBfwzzGKZA2KLHIFUgFA", "longitude": -79.9996, "stars": 4.5, "latitude": 40.4391}, {"review_count": 3, "name": "Able Laundromaxx", "business_id": "3l3tr9nfs_HO7qxAYbkGzg", "longitude": -79.938, "stars": 1.0, "latitude": 40.4274}, {"review_count": 4, "name": "Jamba Juice", "business_id": "3LKcR-g6Ok3i5EtR_GkJQg", "longitude": -79.9911, "stars": 4.0, "latitude": 40.4378}, {"review_count": 17, "name": "Bama's Southern Kitchen", "business_id": "3LM_yK3iF2VjkS6mFRF58w", "longitude": -80.0225, "stars": 4.5, "latitude": 40.3952}, {"review_count": 8, "name": "McMinn's Irish Pub", "business_id": "3M0IdqpLqqXFuOtPF0DyzQ", "longitude": -80.0279, "stars": 3.5, "latitude": 40.3639}, {"review_count": 3, "name": "NCJW Home Consignments", "business_id": "3mnT2b6cY-Tepmon354FYA", "longitude": -79.8886, "stars": 3.5, "latitude": 40.4219}, {"review_count": 19, "name": "Riviera Pizza & Pasta", "business_id": "3Myg9RPgzDaDOT4L0zbYfw", "longitude": -79.9911, "stars": 3.5, "latitude": 40.4601}, {"review_count": 17, "name": "Children's Hospital of Pittsburgh of UPMC", "business_id": "3NEDZLJIfB2LAgz6hkBxOg", "longitude": -79.9532, "stars": 4.5, "latitude": 40.4668}, {"review_count": 49, "name": "Elements Contemporary Cuisine", "business_id": "3ob9ayBETS6z3cn6Hugz7g", "longitude": -80.0041, "stars": 3.5, "latitude": 40.4408}, {"review_count": 12, "name": "Puffs n Stuff", "business_id": "3obPG5F_6rbAu86CuiNW4g", "longitude": -80.0518, "stars": 2.5, "latitude": 40.357}, {"review_count": 29, "name": "Rohrich Toyota", "business_id": "3OViesv3-RkPDyvdxW16sg", "longitude": -80.0201, "stars": 4.0, "latitude": 40.4037}, {"review_count": 6, "name": "Emporio Tobacco", "business_id": "3QEMZbvUWXHqag5Ao94Nhg", "longitude": -79.9986, "stars": 4.0, "latitude": 40.4392}, {"review_count": 16, "name": "West End - Elliott Overlook", "business_id": "3TJ1ZVfYY3YSFTMoke8LVQ", "longitude": -80.0341, "stars": 5.0, "latitude": 40.4457}, {"review_count": 12, "name": "Charlie Murdoch's", "business_id": "3TKmWAHI5Qj4i7GSf7_vDQ", "longitude": -79.9882, "stars": 4.5, "latitude": 40.4289}, {"review_count": 3, "name": "Heart of the Earth", "business_id": "3TXHiYVyhmTUebrP10CQZQ", "longitude": -79.9348, "stars": 3.5, "latitude": 40.4511}, {"review_count": 15, "name": "The Steer and Wheel", "business_id": "3u7WY-VUY9yN3eS65phIZA", "longitude": -79.9961, "stars": 4.5, "latitude": 40.4406}, {"review_count": 5, "name": "Tennis Village", "business_id": "3UL1To_gn_eOY5iFH5oBxA", "longitude": -79.9349, "stars": 5.0, "latitude": 40.451}, {"review_count": 3, "name": "Visionworks", "business_id": "3ulOUFEOHcprENUsXtCKig", "longitude": -80.0034, "stars": 3.5, "latitude": 40.442}, {"review_count": 7, "name": "The Shala of Pittsburgh Ashtanga Yoga", "business_id": "3uLwzSD9ZB9ojqFMDmgx8Q", "longitude": -79.9603, "stars": 5.0, "latitude": 40.4713}, {"review_count": 225, "name": "Fuel & Fuddle", "business_id": "3WgM6mvYrPDxGJ5fADSkUw", "longitude": -79.9566, "stars": 3.5, "latitude": 40.4412}, {"review_count": 53, "name": "Terrace Room", "business_id": "3wvt02K8Q4tZx0OImekCTg", "longitude": -79.9966, "stars": 3.5, "latitude": 40.4406}, {"review_count": 5, "name": "Silvi's Southside Kitchen", "business_id": "3X2vdOhvoCuyrpEsPxfzzg", "longitude": -79.974, "stars": 4.0, "latitude": 40.4281}, {"review_count": 3, "name": "Popeyes", "business_id": "3x3mBlMlfwFOVJtt2tr9gQ", "longitude": -79.887, "stars": 3.5, "latitude": 40.4449}, {"review_count": 12, "name": "Johnny's Diner", "business_id": "3xtsKiY-vUUa3yWrBhYIqA", "longitude": -80.0314, "stars": 4.0, "latitude": 40.4339}, {"review_count": 23, "name": "Chipotle Mexican Grill", "business_id": "3ZepumtXvVkoHsNOWqF4iA", "longitude": -80.0599, "stars": 3.0, "latitude": 40.3917}, {"review_count": 54, "name": "Silky's Pub", "business_id": "3zgswf_NfBJpeAoWeTkgMA", "longitude": -79.9423, "stars": 4.0, "latitude": 40.4583}, {"review_count": 16, "name": "Twisters Soft Serve Ice Cream", "business_id": "3_3yJMo2dTPeq8woOW69IA", "longitude": -79.9541, "stars": 3.5, "latitude": 40.4647}, {"review_count": 4, "name": "Just Good Donuts", "business_id": "4-i9JM0Fl2ldsyWUUu8f6A", "longitude": -79.9794, "stars": 4.0, "latitude": 40.4285}, {"review_count": 68, "name": "Redfin Blues", "business_id": "41CXLCeB8z2oNdIOvnrzIA", "longitude": -79.9776, "stars": 2.5, "latitude": 40.4634}, {"review_count": 84, "name": "Burgatory", "business_id": "42hkpcthl6tJFblVCgNvtw", "longitude": -80.0109, "stars": 4.0, "latitude": 40.446}, {"review_count": 7, "name": "McDonald's", "business_id": "44zt-uJPM4BGs46DaNO98Q", "longitude": -79.9839, "stars": 1.5, "latitude": 40.3645}, {"review_count": 13, "name": "Giant Eagle", "business_id": "46dYEuISLWIMSN55AijJBw", "longitude": -79.9821, "stars": 4.0, "latitude": 40.3676}, {"review_count": 8, "name": "Living Juicy", "business_id": "497fzDpPrMlisVRmvY8cmA", "longitude": -79.9276, "stars": 4.5, "latitude": 40.458}, {"review_count": 4, "name": "Heinz USA", "business_id": "49nxzKLr2qQnLF58qo2p1w", "longitude": -79.9913, "stars": 5.0, "latitude": 40.4551}, {"review_count": 55, "name": "Tiki Lounge", "business_id": "4aFpqIBq-dFz7Fu1sIL6iA", "longitude": -79.9774, "stars": 3.0, "latitude": 40.4288}, {"review_count": 10, "name": "The Loom Exquisite Textiles", "business_id": "4ASVc-idKESyU9w-atsueg", "longitude": -79.9822, "stars": 4.5, "latitude": 40.452}, {"review_count": 33, "name": "Rohrich Honda", "business_id": "4atNH8sL_W6EakDKtWr8OA", "longitude": -79.9765, "stars": 2.5, "latitude": 40.4552}, {"review_count": 7, "name": "Mattress Factory Caf\u00e9", "business_id": "4AUejLFrzodl8AowhJ82rw", "longitude": -80.0124, "stars": 4.5, "latitude": 40.4568}, {"review_count": 10, "name": "PetSmart", "business_id": "4CRQiALk3pSl5LEkKo3dmw", "longitude": -79.9257, "stars": 4.0, "latitude": 40.4597}, {"review_count": 50, "name": "Andys Wine Bar", "business_id": "4D2FmqwuQ_OXypQkQqQZcw", "longitude": -80.0021, "stars": 3.5, "latitude": 40.4414}, {"review_count": 12, "name": "The Big Idea Bookstore and Cafe", "business_id": "4e1FfJ1QxKa3L8TJHOtg7g", "longitude": -79.9468, "stars": 4.5, "latitude": 40.4601}, {"review_count": 6, "name": "Highmark Blue Cross Blue Shield", "business_id": "4ENJO8wDp_hsrl9dofXy8Q", "longitude": -80.0283, "stars": 1.0, "latitude": 40.4543}, {"review_count": 93, "name": "Bar Louie", "business_id": "4eRlRYQ4iBedD7Ymiuah7Q", "longitude": -80.0053, "stars": 2.5, "latitude": 40.4343}, {"review_count": 6, "name": "SW Randall", "business_id": "4FQ1QM2u6rn0n0ph3RbAMQ", "longitude": -79.9207, "stars": 3.5, "latitude": 40.4378}, {"review_count": 5, "name": "Squaw Valley Park", "business_id": "4Gc0KlYrOKLjgWDQj3XXjg", "longitude": -79.8823, "stars": 5.0, "latitude": 40.4981}, {"review_count": 3, "name": "E&J Management", "business_id": "4gXxxBj44-mYQMGrKTHf7Q", "longitude": -79.9251, "stars": 1.5, "latitude": 40.4328}, {"review_count": 4, "name": "All Things Aquatic Dive Center", "business_id": "4Gz_0kkm4wbtgPDx6Y4B0g", "longitude": -79.9986, "stars": 5.0, "latitude": 40.3815}, {"review_count": 4, "name": "J. Verno Studios", "business_id": "4jdlI2bHLZilcH1iRO0WRg", "longitude": -79.9642, "stars": 4.5, "latitude": 40.4227}, {"review_count": 4, "name": "Remnant City", "business_id": "4JLQJtnwJXyLPxYEs0TOzw", "longitude": -79.9875, "stars": 5.0, "latitude": 40.378}, {"review_count": 5, "name": "All the Best Catering", "business_id": "4KJhRKocVPhrkdQQX2KVCw", "longitude": -80.0297, "stars": 4.0, "latitude": 40.4217}, {"review_count": 26, "name": "The Cultural's Elite", "business_id": "4KNIPambhRchLTH3St9HEw", "longitude": -79.9961, "stars": 5.0, "latitude": 40.4441}, {"review_count": 7, "name": "McDonald's", "business_id": "4LcFKTr6Ah87VcxW2z5e6w", "longitude": -79.9989, "stars": 2.0, "latitude": 40.4423}, {"review_count": 8, "name": "Thai Hana Restaurant", "business_id": "4lzxUZD6_SVc10wyDn-H6g", "longitude": -80.0035, "stars": 3.0, "latitude": 40.4412}, {"review_count": 49, "name": "Apteka", "business_id": "4mARK9ioer25qlifSg96YQ", "longitude": -79.9493, "stars": 4.5, "latitude": 40.4656}, {"review_count": 88, "name": "Roman Bistro", "business_id": "4mNRylz5SZZ-dhJOLmfkBg", "longitude": -79.8503, "stars": 3.5, "latitude": 40.4195}, {"review_count": 7, "name": "B & M Automotive Services", "business_id": "4NhJV3Hw3OoTKbnjmIQ9UA", "longitude": -79.9529, "stars": 5.0, "latitude": 40.464}, {"review_count": 33, "name": "Carnegie Mellon University", "business_id": "4n_KDjH3dQCIxHZ3SWVO6g", "longitude": -79.9435, "stars": 4.5, "latitude": 40.4435}, {"review_count": 319, "name": "Cure", "business_id": "4O0GslAIwG_1regXO_UcaQ", "longitude": -79.9512, "stars": 4.0, "latitude": 40.4827}, {"review_count": 3, "name": "Phoenix Upscale Consignment Boutique", "business_id": "4oJvRnEDjpJmOAQXOT1iaA", "longitude": -79.9649, "stars": 4.5, "latitude": 40.4661}, {"review_count": 7, "name": "Horan Edward J, DMD", "business_id": "4oOvpLx3819RPPu77SqMdg", "longitude": -79.9229, "stars": 4.0, "latitude": 40.4364}, {"review_count": 3, "name": "Starbucks", "business_id": "4P5OkE7_ybnO6dyM42csZw", "longitude": -79.9557, "stars": 4.5, "latitude": 40.4437}, {"review_count": 3, "name": "Angels Automotive Service", "business_id": "4pDO3TZ-WJDofAt4uREMig", "longitude": -79.9054, "stars": 4.5, "latitude": 40.4561}, {"review_count": 47, "name": "Rose Tea Cafe", "business_id": "4PvhZdmpkPy8fjzWMSY6jw", "longitude": -79.9489, "stars": 2.5, "latitude": 40.4448}, {"review_count": 14, "name": "Banana Republic", "business_id": "4q2nThFVuU3BZoEMkYQ1yg", "longitude": -79.9323, "stars": 4.0, "latitude": 40.4515}, {"review_count": 13, "name": "Dollar Car Rental", "business_id": "4QRE0H67c1r0j-XxYtllxQ", "longitude": -79.9975, "stars": 2.5, "latitude": 40.4383}, {"review_count": 8, "name": "Boutique la Passerelle", "business_id": "4QyBsmo0AjbY8ZFME-MjqQ", "longitude": -80.001, "stars": 4.5, "latitude": 40.4399}, {"review_count": 67, "name": "DoubleTree by Hilton Hotel & Suites Pittsburgh Downtown", "business_id": "4S5CdZawGJfP3vtR4eAQ1g", "longitude": -79.9941, "stars": 3.5, "latitude": 40.4407}, {"review_count": 5, "name": "Jos A Bank", "business_id": "4tMGXYHN_0o0B6mnuYHhmg", "longitude": -79.9982, "stars": 2.0, "latitude": 40.4412}, {"review_count": 3, "name": "Pampered Peacock Day Spa", "business_id": "4tW7PJw-huYOYLN01BUbgg", "longitude": -79.8659, "stars": 3.5, "latitude": 40.4915}, {"review_count": 57, "name": "Mullen's Bar & Grill", "business_id": "4uOVj07uHLJZ-oVH36MB4w", "longitude": -80.004, "stars": 2.5, "latitude": 40.4484}, {"review_count": 10, "name": "Maduro Smoke Shop", "business_id": "4UuZK9MC4yYg5AJ0Sw6CrQ", "longitude": -79.9224, "stars": 4.0, "latitude": 40.4296}, {"review_count": 19, "name": "The Backstage Bar", "business_id": "4WiL3UaXCxj4lbWwsckisg", "longitude": -80.001, "stars": 3.5, "latitude": 40.4432}, {"review_count": 12, "name": "Johnny O's Bar & Grille", "business_id": "4wYmywBhrUMDn5-oAszHKg", "longitude": -79.9325, "stars": 2.5, "latitude": 40.4517}, {"review_count": 24, "name": "Perfect 10 Nail Salon", "business_id": "4YApQvnmdGAzlb8nnBUMNw", "longitude": -80.0456, "stars": 4.5, "latitude": 40.4177}, {"review_count": 4, "name": "Chipotle Mexican Grill", "business_id": "4YV8wop_AZan-4nXnKwunw", "longitude": -79.8856, "stars": 3.5, "latitude": 40.4881}, {"review_count": 14, "name": "Massage Heights Bakery Square", "business_id": "4Z-pmHR5X2E788kSLE3euQ", "longitude": -79.9118, "stars": 3.0, "latitude": 40.4585}, {"review_count": 4, "name": "Absolute Ballroom & Dance Center", "business_id": "4z0uaVwj-PIHxLBABK-Lbw", "longitude": -79.9099, "stars": 4.5, "latitude": 40.4578}, {"review_count": 64, "name": "Hotel Monaco", "business_id": "4Z1ctqySL5LVXLOTC3bNxw", "longitude": -79.9963, "stars": 4.5, "latitude": 40.4416}, {"review_count": 4, "name": "Reids Fresh Express", "business_id": "4_ui2UwZ3n9SLTFIAL68Ew", "longitude": -79.9959, "stars": 4.5, "latitude": 40.4406}, {"review_count": 3, "name": "The Murals of Maxo Vanka", "business_id": "51QKFqG0rg7RzA_GDsDNpg", "longitude": -79.9698, "stars": 5.0, "latitude": 40.4772}, {"review_count": 203, "name": "Mineo's Pizza House", "business_id": "52CzJDb4EakSjEQOUys77Q", "longitude": -79.9233, "stars": 3.5, "latitude": 40.4329}, {"review_count": 13, "name": "Caribou Coffee", "business_id": "53bxZN3hikoJZkd1EBdhrw", "longitude": -79.9664, "stars": 4.0, "latitude": 40.4269}, {"review_count": 60, "name": "Feng Japanese Steak Hibachi & Sushi House", "business_id": "53qWOpcsaMw4ZQAJi5OIbw", "longitude": -79.9529, "stars": 4.0, "latitude": 40.464}, {"review_count": 4, "name": "Michael J Cushman, DDS", "business_id": "53yinSr14DrieQj0BT0d3g", "longitude": -79.9553, "stars": 5.0, "latitude": 40.4454}, {"review_count": 4, "name": "Motheral", "business_id": "56eSsdwPI7t6c0t312VqLg", "longitude": -79.9142, "stars": 3.5, "latitude": 40.4501}, {"review_count": 3, "name": "South Side Beer Distributor", "business_id": "58AZ_aOhCWQqriwva1-gdw", "longitude": -79.9777, "stars": 2.5, "latitude": 40.429}, {"review_count": 6, "name": "Bayleaf Indian Cusine", "business_id": "58CWQ1FOtT1ClbREmUb-pg", "longitude": -79.9546, "stars": 4.0, "latitude": 40.4367}, {"review_count": 6, "name": "Cogo's", "business_id": "58RJp9m7hMt132ZP8fvm3g", "longitude": -79.9775, "stars": 3.0, "latitude": 40.3834}, {"review_count": 4, "name": "Healing Touch Massage Therapy", "business_id": "59JAguBIKS95_ohKXZtBfw", "longitude": -80.0047, "stars": 4.5, "latitude": 40.4424}, {"review_count": 9, "name": "Green Front Inn", "business_id": "59jTyOmW7rRBRfVG7Uftnw", "longitude": -79.9715, "stars": 3.5, "latitude": 40.4285}, {"review_count": 3, "name": "Hess Paul F DMD", "business_id": "59sAhagzR9x6b8-6hBhMMg", "longitude": -80.0289, "stars": 3.5, "latitude": 40.3572}, {"review_count": 7, "name": "Calli's", "business_id": "5a0mAU5sGrR174mEghnOCw", "longitude": -79.8974, "stars": 3.5, "latitude": 40.4397}, {"review_count": 4, "name": "Winschel Hardware", "business_id": "5BWRiF8PBGxmK4C6gr5YPw", "longitude": -79.9441, "stars": 4.5, "latitude": 40.4961}, {"review_count": 7, "name": "Strong II Dry Cleaners", "business_id": "5Bx-z-7KxB0g6nOuO9gOwg", "longitude": -79.8893, "stars": 5.0, "latitude": 40.4555}, {"review_count": 12, "name": "Alterations Express", "business_id": "5c-GubweiNtUFyQ38lgnHg", "longitude": -79.9171, "stars": 3.5, "latitude": 40.4581}, {"review_count": 33, "name": "Massage Envy", "business_id": "5D-xzcFphR5OE3YMrDO0CA", "longitude": -79.9214, "stars": 3.5, "latitude": 40.4378}, {"review_count": 68, "name": "Grist House Craft Brewery", "business_id": "5dbzunCt920nwML5pYegsQ", "longitude": -79.972, "stars": 4.5, "latitude": 40.4789}, {"review_count": 3, "name": "Kelley's Tailoring & Custom Design", "business_id": "5dTp7_eChd1rO0Js7xSiRg", "longitude": -79.9966, "stars": 5.0, "latitude": 40.4406}, {"review_count": 9, "name": "City Grill", "business_id": "5eCbn-WUr2YIQODHfVP7Sw", "longitude": -79.9768, "stars": 3.5, "latitude": 40.4288}, {"review_count": 4, "name": "Wolf's Den Barber Shop", "business_id": "5EoD4mj7W1mjLeSq6Uo--w", "longitude": -79.9004, "stars": 5.0, "latitude": 40.4891}, {"review_count": 47, "name": "Alder Street Barber", "business_id": "5F1pFxJVAqkDzukIHva5JQ", "longitude": -79.9256, "stars": 4.5, "latitude": 40.4575}, {"review_count": 6, "name": "Strong II Dry Cleaners", "business_id": "5fKlnC-tWnQZii2OuO0TYQ", "longitude": -79.9974, "stars": 5.0, "latitude": 40.4378}, {"review_count": 51, "name": "Pittsburgh Steelers", "business_id": "5GS5sBSscgcex0IFTDL9Bg", "longitude": -80.0169, "stars": 4.5, "latitude": 40.446}, {"review_count": 8, "name": "Allegheny Ice Cream", "business_id": "5h21ieNh9EasiD3WtJUUqw", "longitude": -79.92, "stars": 3.5, "latitude": 40.488}, {"review_count": 5, "name": "Chief's Cafe", "business_id": "5Hd4vp5bKPq-W8zPwabYhw", "longitude": -79.9523, "stars": 4.0, "latitude": 40.4521}, {"review_count": 6, "name": "All Auto Repair", "business_id": "5hnreb4Y7YpQT0h4e5kK0Q", "longitude": -79.9225, "stars": 4.5, "latitude": 40.4297}, {"review_count": 74, "name": "Mario's South Side Saloon", "business_id": "5IbZ0LjSydLAfB9NOyYOIQ", "longitude": -79.9829, "stars": 3.5, "latitude": 40.4287}, {"review_count": 98, "name": "McCormick & Schmick's Seafood & Steaks", "business_id": "5japW20yvS1tomuvliRbcA", "longitude": -79.9665, "stars": 3.0, "latitude": 40.4281}, {"review_count": 15, "name": "Bruegger's Bagels", "business_id": "5K6TGz2q_3w2jGnuAjdi_Q", "longitude": -79.9803, "stars": 3.5, "latitude": 40.4289}, {"review_count": 49, "name": "Sree's Foods", "business_id": "5kD6dP9etfUqtyXUZu9ZyQ", "longitude": -79.9969, "stars": 3.5, "latitude": 40.443}, {"review_count": 48, "name": "Sumi's Cakery", "business_id": "5kVrSq6mXcu_jT3S72xt0A", "longitude": -79.9228, "stars": 4.5, "latitude": 40.4332}, {"review_count": 4, "name": "Chris Anthony Fitness", "business_id": "5M2JDCep66K9VoVcsybwMw", "longitude": -79.9049, "stars": 4.0, "latitude": 40.4547}, {"review_count": 4, "name": "Absolute Safeguard", "business_id": "5MAYRVHUxr-xVBycF3VoYg", "longitude": -80.0487, "stars": 4.0, "latitude": 40.4139}, {"review_count": 91, "name": "Alexander's Italian Bistro", "business_id": "5MChfa-jZfMo3vBpolkSbw", "longitude": -79.9437, "stars": 3.5, "latitude": 40.4584}, {"review_count": 5, "name": "Bayardstown Social Club", "business_id": "5nAdKXwgp6MuvbzH5P5OHA", "longitude": -79.9723, "stars": 4.5, "latitude": 40.4589}, {"review_count": 65, "name": "Vallozzis Pittsburgh", "business_id": "5NcgSVx0fJFYManZSJyRQA", "longitude": -80.0015, "stars": 3.5, "latitude": 40.4411}, {"review_count": 18, "name": "Salon Cercone", "business_id": "5nEnDOd9zKYa_J5SO56-LA", "longitude": -79.9275, "stars": 4.5, "latitude": 40.4581}, {"review_count": 4, "name": "Phantom of the Attic", "business_id": "5nfSjyxpfW_JVywRJWCNQQ", "longitude": -80.0552, "stars": 4.5, "latitude": 40.4269}, {"review_count": 15, "name": "Lewis Hair Salon", "business_id": "5POx2mNWeTyQiTLgfzx_3A", "longitude": -79.9354, "stars": 4.5, "latitude": 40.4505}, {"review_count": 6, "name": "terraFITNESS", "business_id": "5pv14jV1Win8Yhfbde5PjA", "longitude": -79.932, "stars": 5.0, "latitude": 40.4586}, {"review_count": 8, "name": "Supercuts", "business_id": "5Q7mv5SRfIuyefgVfFwv7w", "longitude": -79.9471, "stars": 2.0, "latitude": 40.4536}, {"review_count": 24, "name": "Tian's China Wok", "business_id": "5Qa1bKl5BeXOC_6kZV7nBw", "longitude": -79.9888, "stars": 3.0, "latitude": 40.4385}, {"review_count": 117, "name": "Braddock's Pittsburgh Brasserie", "business_id": "5reb2cEaziuyHOpnbh1XtA", "longitude": -80.0023, "stars": 3.5, "latitude": 40.4438}, {"review_count": 5, "name": "Shadyside Smiles", "business_id": "5szhpMLGVarH11_Zl-9lLg", "longitude": -79.9324, "stars": 1.0, "latitude": 40.4575}, {"review_count": 63, "name": "Pizza Sola", "business_id": "5TBOg9Rf47SECB8gTNGqeQ", "longitude": -79.9247, "stars": 3.5, "latitude": 40.4599}, {"review_count": 4, "name": "e.b. Pepper", "business_id": "5Tc2MYU5YO35JYW6fh1eaA", "longitude": -79.9351, "stars": 4.5, "latitude": 40.4509}, {"review_count": 8, "name": "Beer Nutz of Ohara", "business_id": "5tx3tiX_k-0BklqBHL4ebQ", "longitude": -79.8739, "stars": 3.5, "latitude": 40.4898}, {"review_count": 106, "name": "Cain's Saloon", "business_id": "5Udv4CASAXB2eH66TefWPQ", "longitude": -80.0409, "stars": 3.5, "latitude": 40.3897}, {"review_count": 5, "name": "Milkman Brewing", "business_id": "5uIKz-cTRwPSngjTl8XUNg", "longitude": -79.9795, "stars": 4.5, "latitude": 40.4545}, {"review_count": 6, "name": "Bonura and Sattler Auto Body Shop", "business_id": "5UxCrCoS02vFlSKH0pZ-fg", "longitude": -79.9083, "stars": 5.0, "latitude": 40.4672}, {"review_count": 35, "name": "The Climbing Wall", "business_id": "5V1K5DRpGrObijbtCuPbcg", "longitude": -79.896, "stars": 3.5, "latitude": 40.4479}, {"review_count": 4, "name": "Rudy's Submarines", "business_id": "5yWHbY7c2VIwgXcVgiyGQg", "longitude": -79.8509, "stars": 3.5, "latitude": 40.4139}, {"review_count": 6, "name": "South Hills Brewing Supply", "business_id": "5z1TluGqhwVYrN7ZZPDW6g", "longitude": -80.0542, "stars": 4.5, "latitude": 40.4298}, {"review_count": 3, "name": "Highfield Open Mri", "business_id": "5ZpDHlbrFAVYOixUhmrngA", "longitude": -80.0448, "stars": 1.0, "latitude": 40.4174}, {"review_count": 5, "name": "The Diamond Pizza", "business_id": "5zqhwC-VGm9S36loa_p7-w", "longitude": -80.0057, "stars": 3.5, "latitude": 40.447}, {"review_count": 4, "name": "The Cozy Cafe", "business_id": "5ZuMxdlRbvqLooR8qZxnKw", "longitude": -80.033, "stars": 4.5, "latitude": 40.4416}, {"review_count": 27, "name": "Buford's Kitchen", "business_id": "5_tfTFBpzSskbnmJKUU6oA", "longitude": -79.9904, "stars": 2.0, "latitude": 40.4386}, {"review_count": 194, "name": "Il Pizzaiolo", "business_id": "6-rJjW6ITl5o_FliiNgZRA", "longitude": -80.0445, "stars": 4.0, "latitude": 40.3802}, {"review_count": 29, "name": "Pizza Amier", "business_id": "62EQGCWUVIRixQD_q72V0Q", "longitude": -79.9232, "stars": 3.5, "latitude": 40.4297}, {"review_count": 8, "name": "Leona's Ice Cream Sandwiches", "business_id": "62StQVheUydLhoIUHSs4OA", "longitude": -79.8828, "stars": 4.5, "latitude": 40.4429}, {"review_count": 90, "name": "La Tavola Italiana", "business_id": "63M2e_wSmQ8GbLDUau5K6Q", "longitude": -80.0057, "stars": 3.5, "latitude": 40.4268}, {"review_count": 122, "name": "Texas de Brazil", "business_id": "63rmr1oM0BbAXcUfNEaieQ", "longitude": -80.0053, "stars": 3.5, "latitude": 40.4344}, {"review_count": 5, "name": "Richard Gottlieb, DMD", "business_id": "64pFykiDuDA8aw--T2xO2Q", "longitude": -79.9618, "stars": 4.0, "latitude": 40.4384}, {"review_count": 3, "name": "Top Nail", "business_id": "6a22po6d4gYBPClKsQbvfg", "longitude": -79.9724, "stars": 4.0, "latitude": 40.4293}, {"review_count": 5, "name": "Billy's Troy Hill Bistro", "business_id": "6AnorAMPkTdSDbUkOoV1Rw", "longitude": -79.9823, "stars": 3.0, "latitude": 40.4645}, {"review_count": 10, "name": "North Shore Trail", "business_id": "6auBVj2qa6J894liFDtieQ", "longitude": -79.9776, "stars": 4.0, "latitude": 40.4641}, {"review_count": 8, "name": "Clarion Hotel", "business_id": "6b0HjdqjaxwWbIhWBmSBzQ", "longitude": -79.9924, "stars": 1.5, "latitude": 40.4378}, {"review_count": 6, "name": "Always Compassionate Veterinary Care", "business_id": "6BE9SI6Idal2zbqKys1JKg", "longitude": -79.9785, "stars": 4.0, "latitude": 40.3546}, {"review_count": 50, "name": "Istanbul Grille", "business_id": "6BkbwY0j33py_XmzvmnfXw", "longitude": -80.0002, "stars": 4.5, "latitude": 40.4424}, {"review_count": 3, "name": "FedEx Office Print & Ship Center", "business_id": "6bZviOZehIwKA2ybRMXjAQ", "longitude": -79.998, "stars": 3.5, "latitude": 40.4373}, {"review_count": 3, "name": "Seven Eleven Penn Avenue", "business_id": "6C1Igw4BzRmg5Et8GSVfpA", "longitude": -79.9998, "stars": 1.5, "latitude": 40.4436}, {"review_count": 8, "name": "Obey House Tavern", "business_id": "6e-K5VPERzoyLP5_1c69cw", "longitude": -80.087, "stars": 4.0, "latitude": 40.4418}, {"review_count": 104, "name": "Ali Baba Restaurant", "business_id": "6eU9yPTTbf8PS8fMc4nmCg", "longitude": -79.9491, "stars": 3.5, "latitude": 40.4451}, {"review_count": 26, "name": "GetGo from Giant Eagle", "business_id": "6EXCN46MdJOa00KjuH8jaA", "longitude": -79.9455, "stars": 2.5, "latitude": 40.4546}, {"review_count": 16, "name": "Frankie's Extra Long", "business_id": "6fpd8iXiUypI7eVx-hJhMA", "longitude": -79.9659, "stars": 4.0, "latitude": 40.465}, {"review_count": 9, "name": "Inn-Termission Lounge", "business_id": "6FRqgRAiSwqWbbUCz5XIBw", "longitude": -79.9787, "stars": 2.0, "latitude": 40.4283}, {"review_count": 6, "name": "Puma North America", "business_id": "6HbtmrkFXHU6mf4I1sduXA", "longitude": -79.9655, "stars": 3.5, "latitude": 40.4274}, {"review_count": 66, "name": "Mario's East Side Saloon", "business_id": "6jBxUWn4HYN6w5-ZTadmFA", "longitude": -79.9339, "stars": 3.5, "latitude": 40.4509}, {"review_count": 13, "name": "Boehmer Heating & Cooling", "business_id": "6JOIiBIroaDLkUrj2hR6-g", "longitude": -80.0116, "stars": 4.0, "latitude": 40.4144}, {"review_count": 13, "name": "Embassy Suites by Hilton Pittsburgh Downtown", "business_id": "6K291YSgUikUsdoxT8LhSQ", "longitude": -79.9981, "stars": 3.5, "latitude": 40.4414}, {"review_count": 12, "name": "Life Is Sweet Bakery Cafe", "business_id": "6KrFqm5q4ZZAYxTRaxdCSw", "longitude": -80.0686, "stars": 4.5, "latitude": 40.3755}, {"review_count": 14, "name": "Gidas Flowers", "business_id": "6LbeU_OT1E5MP022PhExvQ", "longitude": -79.9573, "stars": 4.5, "latitude": 40.4414}, {"review_count": 26, "name": "Sababa Middle Eastern Grill", "business_id": "6mRBnYezWvuf5cfkmcLAiA", "longitude": -79.9229, "stars": 4.0, "latitude": 40.4331}, {"review_count": 19, "name": "Forward Lanes", "business_id": "6mvfqyPhe9mbvmIiJKrbMg", "longitude": -79.9223, "stars": 3.5, "latitude": 40.4292}, {"review_count": 4, "name": "Elite Collision", "business_id": "6qa5JIAxdyzlGg8var8JcA", "longitude": -80.0709, "stars": 4.0, "latitude": 40.4982}, {"review_count": 3, "name": "Framezilla", "business_id": "6Qfy-wnlVOMTQ7PhyWw1xA", "longitude": -79.9764, "stars": 5.0, "latitude": 40.456}, {"review_count": 6, "name": "August Wilson Center For African American History", "business_id": "6qK7kD4gsAswjmJpX3PE0w", "longitude": -79.9951, "stars": 4.0, "latitude": 40.4433}, {"review_count": 5, "name": "Kukurin Chiropractic", "business_id": "6qT6Dma9yd-17rAFoiOblA", "longitude": -79.9707, "stars": 3.0, "latitude": 40.4273}, {"review_count": 32, "name": "Yovi's", "business_id": "6rFVdqC74mPnkDmlSUOADg", "longitude": -80.0028, "stars": 4.5, "latitude": 40.4413}, {"review_count": 12, "name": "Blinky's Noble Grill & Bar", "business_id": "6Ro5tqafcr2MZori8DIYnw", "longitude": -80.0557, "stars": 3.5, "latitude": 40.4272}, {"review_count": 12, "name": "PennDOT Photo & Exam Center", "business_id": "6RUuRM5W-F7Snu_4LCQ8lQ", "longitude": -79.9979, "stars": 4.5, "latitude": 40.4411}, {"review_count": 11, "name": "H & M", "business_id": "6SAGhY1RehqyaRTuM6CwAw", "longitude": -79.9668, "stars": 3.5, "latitude": 40.4273}, {"review_count": 18, "name": "Campus Deli", "business_id": "6sJSxhTfN5YLFXKicXRljw", "longitude": -79.955, "stars": 3.0, "latitude": 40.4369}, {"review_count": 352, "name": "NOLA", "business_id": "6THckpNEt8VlGpYgC_4JcQ", "longitude": -80.0028, "stars": 3.5, "latitude": 40.441}, {"review_count": 17, "name": "Fairway Grille", "business_id": "6U9R88kd-juZubgWypySZQ", "longitude": -80.0146, "stars": 3.5, "latitude": 40.3541}, {"review_count": 26, "name": "Beverly Hills Nails", "business_id": "6ueyG_SeDQ2KpLx55Qv9xA", "longitude": -80.044, "stars": 2.5, "latitude": 40.3998}, {"review_count": 3, "name": "A Pleasant Present", "business_id": "6UqTl_meNixoG4DDnlwcJQ", "longitude": -79.923, "stars": 4.5, "latitude": 40.4316}, {"review_count": 10, "name": "Arefa's Espresso", "business_id": "6Vuu0EcpC9Y0EhSsfACrFw", "longitude": -79.9219, "stars": 3.5, "latitude": 40.4381}, {"review_count": 33, "name": "Mullaneys Harp and Fiddle", "business_id": "6xEl2PDJulIp1PfWqa7-aA", "longitude": -79.9809, "stars": 3.5, "latitude": 40.4534}, {"review_count": 30, "name": "Residence Inn Pittsburgh North Shore", "business_id": "6xZiriP6JYIdQymVoI9Q_g", "longitude": -80.006, "stars": 4.0, "latitude": 40.448}, {"review_count": 4, "name": "Walids  Fish And Chicken", "business_id": "6zLwtgTQ8cEEbR4v_yA2Tg", "longitude": -80.0406, "stars": 3.0, "latitude": 40.4442}, {"review_count": 12, "name": "Pennsbury Pub & Grill", "business_id": "6_T2yecBZf9adTu5-moFug", "longitude": -80.0993, "stars": 4.0, "latitude": 40.4294}, {"review_count": 11, "name": "Union Real Estate", "business_id": "72dssggvJOmcip7-1TsDFA", "longitude": -79.9989, "stars": 2.5, "latitude": 40.4382}, {"review_count": 21, "name": "Allegheny Sandwich Shoppe", "business_id": "72EpENhhSayWYsF3XqEJ3w", "longitude": -80.0151, "stars": 4.0, "latitude": 40.4523}, {"review_count": 10, "name": "St Nicholas Greek Orthodox Cathedral", "business_id": "74M-Z77aaj0da0KpwhjSyw", "longitude": -79.9498, "stars": 4.0, "latitude": 40.4448}, {"review_count": 21, "name": "JCC of Greater Pittsburgh", "business_id": "7668KFSOv4jCk2fbzigfOw", "longitude": -79.9239, "stars": 3.5, "latitude": 40.4377}, {"review_count": 6, "name": "Painting with a Twist", "business_id": "78evUv1_R0KtcBD8qK9cgQ", "longitude": -79.9681, "stars": 4.5, "latitude": 40.4276}, {"review_count": 109, "name": "BD's Mongolian Grill", "business_id": "78JJr9A0MbbHuXE1XUr-bQ", "longitude": -79.9657, "stars": 3.5, "latitude": 40.4283}, {"review_count": 6, "name": "Rohrich Chevrolet", "business_id": "79NsuldAoNz2AovEW6QOOw", "longitude": -80.0292, "stars": 3.5, "latitude": 40.397}, {"review_count": 8, "name": "Pittsburgh Guitars", "business_id": "79Z0VidcBIBCi7-hNCLmSA", "longitude": -79.9851, "stars": 5.0, "latitude": 40.429}, {"review_count": 5, "name": "Dirty Harry's", "business_id": "7AEj6ZdpIie_G3ANgC3oLg", "longitude": -80.0065, "stars": 2.0, "latitude": 40.434}, {"review_count": 4, "name": "Persona Hair & Spa", "business_id": "7ArW9lGBoSNOWIY5myDLWw", "longitude": -80.0361, "stars": 3.0, "latitude": 40.3977}, {"review_count": 42, "name": "Umbrella Cafe", "business_id": "7B7ncPm1BLWDhvWFdPdVAA", "longitude": -79.9962, "stars": 5.0, "latitude": 40.4437}, {"review_count": 4, "name": "Ronnie's Tire Service - Pittsburgh", "business_id": "7dtwU14PIkivs1l5odxjMg", "longitude": -79.9997, "stars": 5.0, "latitude": 40.3989}, {"review_count": 5, "name": "Uptown", "business_id": "7e0HR7cnw9_57dNAVHW3pA", "longitude": -79.9903, "stars": 5.0, "latitude": 40.4388}, {"review_count": 13, "name": "That's Amore", "business_id": "7eL9P3f3P2AmVceWnSVfiw", "longitude": -79.9555, "stars": 4.5, "latitude": 40.479}, {"review_count": 74, "name": "Judit European Visage", "business_id": "7ELrpDCIaRRUBI_uztgB-Q", "longitude": -79.9771, "stars": 4.5, "latitude": 40.4288}, {"review_count": 26, "name": "East End Veterinary Medical Centre", "business_id": "7eqqQAwMG3jbTxnR6fNk2Q", "longitude": -79.9286, "stars": 4.0, "latitude": 40.4579}, {"review_count": 3, "name": "Manpasand Spice Corner", "business_id": "7f73ptePsHAr4onNi4Zjug", "longitude": -80.0708, "stars": 4.5, "latitude": 40.3907}, {"review_count": 5, "name": "Magee-Womens Hospital", "business_id": "7f7P9SCQgBRSMYXbsnDGDQ", "longitude": -80.0403, "stars": 3.0, "latitude": 40.3736}, {"review_count": 6, "name": "Mr Willie's BBQ", "business_id": "7FhtgC9MKNfoeKaTFbWj5w", "longitude": -79.9229, "stars": 2.0, "latitude": 40.4331}, {"review_count": 13, "name": "Potomac Bakery", "business_id": "7FRn0CFWQmZFu8bcEqrXMw", "longitude": -80.0442, "stars": 4.0, "latitude": 40.3808}, {"review_count": 27, "name": "Burger King", "business_id": "7GDXpAS4LUSFmzmmm3EtuQ", "longitude": -79.9795, "stars": 2.0, "latitude": 40.4284}, {"review_count": 95, "name": "Muddy Waters Oyster Bar", "business_id": "7GTl6b4TwEzkbUkq0C8b4w", "longitude": -79.9254, "stars": 4.0, "latitude": 40.4602}, {"review_count": 39, "name": "Veraldi Hair Beauty Wellness", "business_id": "7hugevd0swogs5Shrh0o2g", "longitude": -79.9484, "stars": 4.5, "latitude": 40.4457}, {"review_count": 62, "name": "Cuzamil Restaurante Mexicano", "business_id": "7HYRFdeKs3BJShmOOHPBoA", "longitude": -79.9229, "stars": 2.5, "latitude": 40.4334}, {"review_count": 3, "name": "Forever Rosemary", "business_id": "7ijbLiiirSkA-TNHCZTe3g", "longitude": -79.9539, "stars": 2.5, "latitude": 40.4665}, {"review_count": 20, "name": "Starbucks", "business_id": "7ijQJV72aBrEoJCtTBCHxw", "longitude": -80.0022, "stars": 3.5, "latitude": 40.4402}, {"review_count": 11, "name": "Bruegger's Bagels", "business_id": "7JYif-4RQOMWrUkoemuytA", "longitude": -79.9228, "stars": 2.5, "latitude": 40.4374}, {"review_count": 3, "name": "Quest Diagnostics", "business_id": "7JYU40MBotzwUZT-ADJPtw", "longitude": -79.9247, "stars": 3.0, "latitude": 40.4283}, {"review_count": 9, "name": "The Pittsburgh Tour Company", "business_id": "7KIFBT5oAMiE_jK9EM6JXw", "longitude": -79.9659, "stars": 3.0, "latitude": 40.4281}, {"review_count": 14, "name": "Apple Inn", "business_id": "7KjZ49Xrb6QWjnu5NlxzVw", "longitude": -80.0341, "stars": 3.0, "latitude": 40.3948}, {"review_count": 12, "name": "Murphy's Tap Room", "business_id": "7lDNKKxMV84KIS1OVZOepw", "longitude": -79.8939, "stars": 3.0, "latitude": 40.4325}, {"review_count": 58, "name": "Alma Pan-Latin Kitchen", "business_id": "7lFWEsNkTR0RwI4Dvhueww", "longitude": -79.8975, "stars": 4.0, "latitude": 40.4396}, {"review_count": 10, "name": "Mancini's Bakery", "business_id": "7MdzVVJjRNTRY8Dta5ednA", "longitude": -80.0023, "stars": 4.0, "latitude": 40.4411}, {"review_count": 4, "name": "Pennsylvania Turnpike Comm", "business_id": "7Q2eP_xd--kZQkSpId_N6Q", "longitude": -80.0416, "stars": 2.0, "latitude": 40.4245}, {"review_count": 14, "name": "Silver Palace Chinese Restaurant", "business_id": "7QBJDNVH6VPAStSvOM_lZA", "longitude": -80.0038, "stars": 4.0, "latitude": 40.3774}, {"review_count": 10, "name": "Rita's Italian Ice", "business_id": "7rTMlsgK44cq9gcotPksyA", "longitude": -80.0148, "stars": 4.5, "latitude": 40.3831}, {"review_count": 3, "name": "Tienda La Jimenez", "business_id": "7s1iOwUhUvJEGrPOTDx6FA", "longitude": -80.0243, "stars": 3.5, "latitude": 40.4099}, {"review_count": 8, "name": "Pittsburgh Tribune -Review", "business_id": "7s3RGq5NmfAFDKrrrm1xuQ", "longitude": -80.0089, "stars": 2.0, "latitude": 40.449}, {"review_count": 14, "name": "Seoul Mart", "business_id": "7sc5j9G5A79MTXrRC6sOiQ", "longitude": -79.9472, "stars": 2.5, "latitude": 40.4472}, {"review_count": 22, "name": "Sur La Table", "business_id": "7TvGkot7YGI3nIJEqIQGXw", "longitude": -79.9663, "stars": 4.0, "latitude": 40.428}, {"review_count": 20, "name": "The Original Gyro", "business_id": "7UBqeUvQeZd5o2Jw9F8r0g", "longitude": -80.0181, "stars": 4.0, "latitude": 40.3652}, {"review_count": 11, "name": "Pennzoil 10 Minute Oil Change Center", "business_id": "7V2lVE5sZrpCJaX-EF4-uw", "longitude": -79.9275, "stars": 3.5, "latitude": 40.4198}, {"review_count": 15, "name": "Sinobi", "business_id": "7vdI1q6ptMcKmbmePLxTsg", "longitude": -80.0021, "stars": 2.5, "latitude": 40.4411}, {"review_count": 21, "name": "Szmidt's Old World Deli", "business_id": "7VDwNJE2_5d8ifONCfpdHw", "longitude": -79.9961, "stars": 4.5, "latitude": 40.4434}, {"review_count": 11, "name": "20/20 Opticians", "business_id": "7vXcsbM_q5_QeGbqKaK6bg", "longitude": -79.9285, "stars": 4.5, "latitude": 40.423}, {"review_count": 6, "name": "Copacetic Comics Company", "business_id": "7W_QsNhtvKi7Pzvu2pHCRQ", "longitude": -79.9658, "stars": 5.0, "latitude": 40.4575}, {"review_count": 164, "name": "Las Velas", "business_id": "7xNe2WZAQUGMp1_CxGVKnQ", "longitude": -80.0022, "stars": 3.0, "latitude": 40.441}, {"review_count": 3, "name": "Gene Sanes", "business_id": "7XX-2YyRTLVvki-qsM3sVQ", "longitude": -79.9865, "stars": 5.0, "latitude": 40.4497}, {"review_count": 73, "name": "Lot 17", "business_id": "7XXmky6YYjsvKFwho_eavg", "longitude": -79.9502, "stars": 4.0, "latitude": 40.4626}, {"review_count": 6, "name": "MixStirs Cafe", "business_id": "7yCFfHHcs88ffYIa3NTumA", "longitude": -79.9962, "stars": 3.0, "latitude": 40.4404}, {"review_count": 29, "name": "Asia Tea House", "business_id": "7yzFARDjgSSF7pe7IDnd_A", "longitude": -79.9502, "stars": 3.0, "latitude": 40.444}, {"review_count": 55, "name": "Fukuda", "business_id": "7ZwHZq29K5mXyH5tqyPJ5w", "longitude": -79.9478, "stars": 4.0, "latitude": 40.4608}, {"review_count": 59, "name": "Pittsburgh Public Market", "business_id": "7_ehud9OJdNm8jj13Isdxg", "longitude": -79.9805, "stars": 4.0, "latitude": 40.4538}, {"review_count": 6, "name": "Mr Magic Car Wash", "business_id": "8161CthTqGbZq0kyFB2iBw", "longitude": -79.9825, "stars": 4.0, "latitude": 40.3703}, {"review_count": 20, "name": "The Scoop", "business_id": "816Z3Uc2jAZFHbyHr4W6Zg", "longitude": -79.9105, "stars": 4.0, "latitude": 40.3688}, {"review_count": 13, "name": "Green Garden", "business_id": "81sqVj0xHyJXGYT0ip5fmQ", "longitude": -80.0499, "stars": 2.5, "latitude": 40.3889}, {"review_count": 3, "name": "GNC", "business_id": "81y_sKnunjJF33tIwwL_8Q", "longitude": -79.9174, "stars": 2.0, "latitude": 40.458}, {"review_count": 130, "name": "Las Palmas", "business_id": "81z_FvKvJ7YFfuP8WN7RnQ", "longitude": -79.9553, "stars": 4.5, "latitude": 40.4389}, {"review_count": 9, "name": "Le Brew House", "business_id": "825LWZwpTWU2-Md4DuMCrw", "longitude": -79.9693, "stars": 3.0, "latitude": 40.4275}, {"review_count": 3, "name": "Smiles by Smith Orthodontics", "business_id": "82mYRYNDnZMjB1AXOo1bkg", "longitude": -79.8719, "stars": 2.5, "latitude": 40.4896}, {"review_count": 45, "name": "Bar 11", "business_id": "83qWae4b6toQpuCLnfSCTQ", "longitude": -79.9875, "stars": 4.0, "latitude": 40.4272}, {"review_count": 117, "name": "Tazza D'oro Cafe & Espresso Bar", "business_id": "83_p9vIqOq1TUIf3_GD7bA", "longitude": -79.9189, "stars": 4.5, "latitude": 40.4749}, {"review_count": 9, "name": "Great Clips", "business_id": "85YR3Yt8mBZR1TMeFJJ7hg", "longitude": -79.9246, "stars": 3.5, "latitude": 40.4602}, {"review_count": 4, "name": "Poillucci Plumbing", "business_id": "87eUKK0Ylym5hJEE-vhvXw", "longitude": -79.9549, "stars": 3.0, "latitude": 40.4799}, {"review_count": 4, "name": "Steel City Rib House", "business_id": "89sSMLp-yLqdYqOEPXvkjg", "longitude": -79.924, "stars": 4.0, "latitude": 40.463}, {"review_count": 8, "name": "Steel City Improv Theater", "business_id": "8aOdySCt_thyOezTqbrgaw", "longitude": -79.9256, "stars": 4.5, "latitude": 40.4587}, {"review_count": 8, "name": "Madonna's Restaurant", "business_id": "8AskFIgGxqNb8RbcDCAfmA", "longitude": -79.9992, "stars": 4.0, "latitude": 40.4396}, {"review_count": 4, "name": "Fort Pitt Candy Co", "business_id": "8BUJXN2fU15kclyTA3KhAw", "longitude": -79.9862, "stars": 4.0, "latitude": 40.4494}, {"review_count": 25, "name": "Original Milano's Pizza", "business_id": "8bzvvfrE0r71ZrxOxAgpaw", "longitude": -79.9588, "stars": 3.0, "latitude": 40.4414}, {"review_count": 6, "name": "PNC Bank", "business_id": "8e3aSkQzTLON6Zny_Mya3A", "longitude": -79.932, "stars": 3.5, "latitude": 40.4519}, {"review_count": 44, "name": "New York Nails", "business_id": "8FPhn34o7_hHXaXyU2JfeA", "longitude": -79.9286, "stars": 4.0, "latitude": 40.4226}, {"review_count": 6, "name": "5th Avenue Detailing & Car Wash", "business_id": "8g7BvU8Gv-OuqNIhIuZh5Q", "longitude": -79.9087, "stars": 3.5, "latitude": 40.4578}, {"review_count": 3, "name": "Glow Fitness Studio", "business_id": "8gsEpNtigtn4zsO-JOlsZQ", "longitude": -80.0527, "stars": 4.5, "latitude": 40.4298}, {"review_count": 3, "name": "Bram Cleaning & Tailoring", "business_id": "8HhS0fv2voRtVd3r-Uu5ZA", "longitude": -80.0073, "stars": 3.0, "latitude": 40.4311}, {"review_count": 5, "name": "Pair Networks", "business_id": "8hkImqbzTPgUl2F-3jphHg", "longitude": -79.9698, "stars": 3.5, "latitude": 40.4299}, {"review_count": 38, "name": "Hyatt Place Pittsburgh/North Shore", "business_id": "8JNdJrQzyP_J2Us-AlVhng", "longitude": -80.0089, "stars": 3.0, "latitude": 40.4467}, {"review_count": 5, "name": "Damon's Grill & Sports Bar", "business_id": "8lARaDQMye3WCVcyZ9XcMQ", "longitude": -79.9952, "stars": 3.0, "latitude": 40.4415}, {"review_count": 14, "name": "Sojourn Catering & Deli", "business_id": "8lTyozmJa3DhTVV8srdXIw", "longitude": -80.0555, "stars": 5.0, "latitude": 40.4275}, {"review_count": 18, "name": "Caliente Pizza & Draft House", "business_id": "8M1zE-YhjABqG71JhN-JEA", "longitude": -80.0367, "stars": 3.0, "latitude": 40.3763}, {"review_count": 15, "name": "Mi Ranchito", "business_id": "8MQoAj0bqEmGgJkRi14HtA", "longitude": -79.9548, "stars": 3.0, "latitude": 40.4385}, {"review_count": 10, "name": "Sapporo Japanese Steakhouse", "business_id": "8Nm_jcCYtMXYW0ODSHDiXA", "longitude": -80.0909, "stars": 4.0, "latitude": 40.44}, {"review_count": 38, "name": "SouthSide Works Cinema", "business_id": "8oI39XswCyOAqQaqnwZlnQ", "longitude": -79.9653, "stars": 3.5, "latitude": 40.4282}, {"review_count": 10, "name": "Iron City Self Storage", "business_id": "8PEiblwSXR-u3qnPNPEdIA", "longitude": -79.9562, "stars": 4.0, "latitude": 40.4582}, {"review_count": 152, "name": "Bangkok Balcony", "business_id": "8q8GMsDPYp4JVdx6k-FeTA", "longitude": -79.9211, "stars": 3.5, "latitude": 40.4378}, {"review_count": 3, "name": "Boston Market", "business_id": "8QlnAcjGE6dgfKTVoxrPvQ", "longitude": -79.9587, "stars": 2.5, "latitude": 40.4952}, {"review_count": 7, "name": "Flaherty Tree Service", "business_id": "8RbRQj58Dr9z4oUf633BMg", "longitude": -80.0325, "stars": 5.0, "latitude": 40.4683}, {"review_count": 282, "name": "Waffles Incaffeinated", "business_id": "8rztpAGPJA9fgFwP25RP7A", "longitude": -79.9693, "stars": 4.0, "latitude": 40.4278}, {"review_count": 10, "name": "Maharaja Restaurant", "business_id": "8tBfgYCI6Fz9xrSYCYCYXA", "longitude": -80.0301, "stars": 3.5, "latitude": 40.4203}, {"review_count": 26, "name": "India Palace Cuisine", "business_id": "8Uwii38FoomPrXJhg6Hx5Q", "longitude": -80.0027, "stars": 3.5, "latitude": 40.444}, {"review_count": 5, "name": "Three Rivers Vintage", "business_id": "8VOXHkfpcjiqGqi5l48X_A", "longitude": -79.9813, "stars": 5.0, "latitude": 40.4288}, {"review_count": 15, "name": "Whim", "business_id": "8X3kmaFaaZ17hXu4za3-hQ", "longitude": -80.0016, "stars": 3.0, "latitude": 40.431}, {"review_count": 4, "name": "PNC", "business_id": "8XhyQYCDqk5liliw9Z1odA", "longitude": -80.0015, "stars": 3.0, "latitude": 40.4412}, {"review_count": 14, "name": "Tavern In The Wall", "business_id": "8xvnIG6zg2cA-thJJ5NW8A", "longitude": -79.9046, "stars": 3.5, "latitude": 40.4905}, {"review_count": 7, "name": "Complete Family Vision Care", "business_id": "8YKtGi7e8H53P_XXRMc-Fg", "longitude": -79.9512, "stars": 4.0, "latitude": 40.4499}, {"review_count": 462, "name": "Point Brugge Caf\u00e9", "business_id": "8zdeaK3PWDsr5Kq4UOuNSw", "longitude": -79.9139, "stars": 4.5, "latitude": 40.45}, {"review_count": 54, "name": "Tavern 245", "business_id": "8ZKrJs_z1Wfbb9yHKrwinQ", "longitude": -80.0017, "stars": 3.5, "latitude": 40.4396}, {"review_count": 128, "name": "The Commonplace Coffeehouse", "business_id": "8Zoej25Y9-yEyuiL7-Ax7A", "longitude": -79.9219, "stars": 4.5, "latitude": 40.4381}, {"review_count": 16, "name": "Allegheny General Hospital", "business_id": "8Zv4xtP3X9a6JBFwtANd1Q", "longitude": -80.0037, "stars": 3.0, "latitude": 40.457}, {"review_count": 29, "name": "Impressionz", "business_id": "9-ajcNoEnO2ncMi6iiyKmA", "longitude": -79.9242, "stars": 4.5, "latitude": 40.4623}, {"review_count": 68, "name": "Morton's The Steakhouse", "business_id": "90Fqfzd8zD9AuuNBSv9lAg", "longitude": -80.0009, "stars": 4.0, "latitude": 40.4424}, {"review_count": 3, "name": "Advance Auto Parts", "business_id": "91OcpKIs4scRpgeE_TcdsQ", "longitude": -79.9957, "stars": 4.5, "latitude": 40.4424}, {"review_count": 6, "name": "Vocelli Pizza", "business_id": "93r7y20-xLWIAqIIYMtlDg", "longitude": -80.0029, "stars": 2.5, "latitude": 40.4423}, {"review_count": 145, "name": "Beto's Pizza", "business_id": "93UCt9OgWYmypZCpXtUu8g", "longitude": -80.0303, "stars": 4.0, "latitude": 40.4127}, {"review_count": 6, "name": "Safelite AutoGlass", "business_id": "964cPxZURhTtjTNBwfrEhA", "longitude": -79.9882, "stars": 4.5, "latitude": 40.3783}, {"review_count": 34, "name": "Patron Mexican Grill", "business_id": "96AU4ZYlzP8G0YwKvq7fFg", "longitude": -79.8816, "stars": 3.0, "latitude": 40.4877}, {"review_count": 8, "name": "Siegel and Company", "business_id": "96s4xeGHyjH8YU0wJjBZPg", "longitude": -79.9727, "stars": 5.0, "latitude": 40.428}, {"review_count": 3, "name": "Eiseltown Flowers & Gifts", "business_id": "98yxgWiQCm-UpidnsJfC_w", "longitude": -80.0073, "stars": 4.5, "latitude": 40.4305}, {"review_count": 6, "name": "Subway", "business_id": "99WYCuBEsO7OUCDWbbrrew", "longitude": -80.0182, "stars": 2.5, "latitude": 40.4501}, {"review_count": 9, "name": "Be Pure Organic Salon & Boutique", "business_id": "9AIEt1NucPJWmH9l4G61nA", "longitude": -79.954, "stars": 5.0, "latitude": 40.4806}, {"review_count": 10, "name": "Dairy Queen", "business_id": "9aw0t0rlACKkMaxsX0KlKA", "longitude": -80.0465, "stars": 3.5, "latitude": 40.396}, {"review_count": 5, "name": "Pittsburgh Chiropractic Associates", "business_id": "9b-YnpVt3P5Sk0_yUDaMGQ", "longitude": -79.9996, "stars": 5.0, "latitude": 40.4405}, {"review_count": 120, "name": "Eden", "business_id": "9b0y3HVHPWFnobKyMFFoCg", "longitude": -79.9345, "stars": 4.0, "latitude": 40.4512}, {"review_count": 3, "name": "Day West Liberty Subaru Service", "business_id": "9B6gBVup7Ccy7I9OEMRzqg", "longitude": -80.0237, "stars": 1.0, "latitude": 40.4006}, {"review_count": 8, "name": "Crazy Mocha", "business_id": "9bqGhpj6NYVrdojYUnHMgA", "longitude": -79.9947, "stars": 3.5, "latitude": 40.4442}, {"review_count": 26, "name": "Miss Saigon88", "business_id": "9cuRKVFit28XH8MhELRwpw", "longitude": -79.9515, "stars": 3.0, "latitude": 40.4512}, {"review_count": 20, "name": "Groceria Merante", "business_id": "9Cx8HT4LLis_2OvcFZpEmw", "longitude": -79.9554, "stars": 5.0, "latitude": 40.4366}, {"review_count": 22, "name": "E Town Bar and Grille", "business_id": "9D0muUbQVMrw3_eDg3tkFg", "longitude": -79.9451, "stars": 4.5, "latitude": 40.4953}, {"review_count": 20, "name": "Labad's", "business_id": "9D4PMia-8WqCYXnr7TM0Pw", "longitude": -79.9854, "stars": 4.5, "latitude": 40.4503}, {"review_count": 3, "name": "Nana's Place By Gibsons", "business_id": "9d5C8rR7B3HeYMU6-U5_Nw", "longitude": -79.9516, "stars": 3.5, "latitude": 40.4627}, {"review_count": 5, "name": "5ive Lounge", "business_id": "9dQe2KwoHKJvZDHUXlnU0Q", "longitude": -80.004, "stars": 3.0, "latitude": 40.4335}, {"review_count": 3, "name": "Calabria's Italian Restaurant", "business_id": "9dRhseYpES0LO0iNDLHtrg", "longitude": -79.9447, "stars": 2.5, "latitude": 40.4655}, {"review_count": 8, "name": "Slacker", "business_id": "9FS1pPCjJMlFbsVylbxPHw", "longitude": -79.985, "stars": 4.5, "latitude": 40.4286}, {"review_count": 21, "name": "JT's Restaurant", "business_id": "9hF1vOOkT-OMVhYwPCxtcw", "longitude": -79.9824, "stars": 4.0, "latitude": 40.3652}, {"review_count": 4, "name": "Get Mad Mobile Auto Detailing", "business_id": "9hOEP1m3Twyb3QlcZXzirw", "longitude": -79.9959, "stars": 1.5, "latitude": 40.4406}, {"review_count": 6, "name": "Rite Aid", "business_id": "9iPsnH3gJdyledlHYahLeg", "longitude": -79.9981, "stars": 2.5, "latitude": 40.4417}, {"review_count": 55, "name": "Pittsburgh Winery", "business_id": "9iwONFY-aRZA1mgmVgm2ZQ", "longitude": -79.9755, "stars": 4.5, "latitude": 40.4573}, {"review_count": 9, "name": "Sincerely Yogurt", "business_id": "9J6ORCp53ydDSw8nNCV2uQ", "longitude": -79.9664, "stars": 3.5, "latitude": 40.4267}, {"review_count": 3, "name": "Dave's Barber Shop", "business_id": "9jkxYkOOLge89D3KHrrNsw", "longitude": -80.0006, "stars": 4.5, "latitude": 40.4542}, {"review_count": 12, "name": "Paisano's", "business_id": "9Kdb70PhV6O89cdfqYZJpQ", "longitude": -79.9929, "stars": 4.0, "latitude": 40.422}, {"review_count": 11, "name": "Mateo's Cucina Italiana", "business_id": "9kdUXcx-0d93fEBqp4kcpg", "longitude": -80.0211, "stars": 4.0, "latitude": 40.3942}, {"review_count": 6, "name": "Foodland", "business_id": "9KsHPdF1-P_CiXnvugdQvQ", "longitude": -80.008, "stars": 1.5, "latitude": 40.4295}, {"review_count": 47, "name": "Holiday Inn Express & Suites Pittsburgh-South Side", "business_id": "9lWgWAARYLsSL-g4kpn_gQ", "longitude": -79.989, "stars": 3.0, "latitude": 40.4298}, {"review_count": 10, "name": "Alex's Corner Pizza Shop", "business_id": "9MpJPuR-IL_sj842pofLPQ", "longitude": -79.9471, "stars": 4.0, "latitude": 40.4585}, {"review_count": 97, "name": "Spaghetti Warehouse", "business_id": "9mwShpTgZofOujt4JfyGmw", "longitude": -79.9793, "stars": 2.5, "latitude": 40.4559}, {"review_count": 20, "name": "Kuhn's Market", "business_id": "9NL2GL4jSPVj9SKijH5PqA", "longitude": -80.0434, "stars": 4.0, "latitude": 40.3997}, {"review_count": 110, "name": "Daphne Cafe", "business_id": "9oeMdTVt0VeI-enjBpKBiQ", "longitude": -79.9305, "stars": 4.0, "latitude": 40.4564}, {"review_count": 260, "name": "Monterey Bay Fish Grotto", "business_id": "9oImwXLAn-DFppBrfbmkLg", "longitude": -80.0212, "stars": 4.0, "latitude": 40.4391}, {"review_count": 3, "name": "Free People", "business_id": "9poFd_TU50RiJoLWltvlvA", "longitude": -79.9168, "stars": 3.5, "latitude": 40.4576}, {"review_count": 7, "name": "Bruegger's Bagels", "business_id": "9q0T11qr73CgUlLM1amWMA", "longitude": -79.9984, "stars": 3.0, "latitude": 40.4385}, {"review_count": 22, "name": "Mexico City", "business_id": "9r4gq8LVewal0uTnLiS1zQ", "longitude": -80.0014, "stars": 3.0, "latitude": 40.4398}, {"review_count": 5, "name": "Supercuts", "business_id": "9rbWt_PX8qVVN-nEJv3A9Q", "longitude": -80.0437, "stars": 3.0, "latitude": 40.3995}, {"review_count": 3, "name": "T-Mobile", "business_id": "9rpQfebWYwMPQoyXOeIvAQ", "longitude": -79.9987, "stars": 3.5, "latitude": 40.4404}, {"review_count": 15, "name": "Natural Stitches", "business_id": "9rpvTdjqiNfISm6QtEtvKA", "longitude": -79.9174, "stars": 4.5, "latitude": 40.4586}, {"review_count": 136, "name": "Conflict Kitchen", "business_id": "9S1I9r0JXTaaQ7yb30rP2g", "longitude": -79.9536, "stars": 4.5, "latitude": 40.4411}, {"review_count": 34, "name": "Lucy's", "business_id": "9sg-JXUxnCiZqs3GhRQAKQ", "longitude": -79.9815, "stars": 4.5, "latitude": 40.4525}, {"review_count": 237, "name": "Soba", "business_id": "9SPwF-vRgtuHxciFxv5YLA", "longitude": -79.9296, "stars": 4.0, "latitude": 40.4571}, {"review_count": 5, "name": "Planned Parenthood", "business_id": "9T-voT8ud9489f_VKdqv2Q", "longitude": -79.9968, "stars": 4.0, "latitude": 40.4435}, {"review_count": 3, "name": "Verde Good Beans", "business_id": "9tEz0kwrEnhi7-CVg8pktw", "longitude": -80.0, "stars": 4.5, "latitude": 40.437}, {"review_count": 36, "name": "Crazy Mocha Coffee", "business_id": "9TOZic931NktWjVGftktJQ", "longitude": -79.9302, "stars": 3.5, "latitude": 40.4563}, {"review_count": 3, "name": "Wine & Spirits Stores", "business_id": "9tTYOHjgQsVON4UkDKvFcg", "longitude": -80.0356, "stars": 4.0, "latitude": 40.3942}, {"review_count": 29, "name": "Philip Pelusi", "business_id": "9u4SqxRrVxE_yfzK6LBJkw", "longitude": -79.9232, "stars": 3.0, "latitude": 40.4365}, {"review_count": 18, "name": "City Cafe", "business_id": "9VjQd37E5B5o7kiOXpv0Qw", "longitude": -79.8847, "stars": 4.0, "latitude": 40.4332}, {"review_count": 24, "name": "Bob's Garage", "business_id": "9VtaTbTKVK9sQVy4j2RO-w", "longitude": -79.8724, "stars": 3.5, "latitude": 40.4896}, {"review_count": 4, "name": "Womancare Associates - Doubletree", "business_id": "9vvs2aAMYHsScShc7Ar2fg", "longitude": -79.994, "stars": 4.5, "latitude": 40.4407}, {"review_count": 12, "name": "Venture Outdoors", "business_id": "9VySO9xOHY3nFfsokcDJ9w", "longitude": -79.9968, "stars": 4.5, "latitude": 40.4304}, {"review_count": 9, "name": "Caff\u00e8 d'Amore Coffeeshop", "business_id": "9wMsmAYYFdS4LssbroDxkA", "longitude": -79.9509, "stars": 4.0, "latitude": 40.4828}, {"review_count": 6, "name": "Lock & Dam Dog Shop", "business_id": "9X6yYD_VJHstY1rKYM8TUQ", "longitude": -79.92, "stars": 3.5, "latitude": 40.488}, {"review_count": 11, "name": "Bakery Square", "business_id": "9xGaLA59kjqNSh2s_Heonw", "longitude": -79.9169, "stars": 3.0, "latitude": 40.4572}, {"review_count": 8, "name": "Panthro Fitness", "business_id": "9yHjTVcv_rTwtR5TiyTMRg", "longitude": -79.9711, "stars": 4.5, "latitude": 40.4603}, {"review_count": 403, "name": "PNC Park", "business_id": "9ylfrWjdX6CltGs_Qcv7Ng", "longitude": -80.0057, "stars": 4.5, "latitude": 40.4469}, {"review_count": 3, "name": "Fort Pitt Blockhouse", "business_id": "9_kt-nPxnDzRIGnqLI-1BQ", "longitude": -80.0083, "stars": 4.5, "latitude": 40.4411}, {"review_count": 33, "name": "Leena's Food", "business_id": "A-7LUuRxyWAvX5IuUg6A7A", "longitude": -79.9571, "stars": 4.0, "latitude": 40.4418}, {"review_count": 4, "name": "Evolver Tattoo Arts", "business_id": "A-oESW41yq5QpfNvrooRwQ", "longitude": -79.988, "stars": 5.0, "latitude": 40.4288}, {"review_count": 4, "name": "Cricket Lounge", "business_id": "a0ANvc_KMLS4kFNCbSu-4A", "longitude": -79.945, "stars": 4.5, "latitude": 40.4545}, {"review_count": 4, "name": "Jeffrey Smith Studio", "business_id": "a0fz-TxGU3UXMcEKb3q-mw", "longitude": -79.9644, "stars": 5.0, "latitude": 40.4671}, {"review_count": 6, "name": "Lomito", "business_id": "a0n2kpuMZoep8crmDhM9VQ", "longitude": -79.9478, "stars": 4.5, "latitude": 40.4608}, {"review_count": 11, "name": "Fox Chapel Shoe Service", "business_id": "a1PXT9IQ7PfvMXRWSdQbig", "longitude": -79.8804, "stars": 5.0, "latitude": 40.4879}, {"review_count": 3, "name": "Club One-Waterworks", "business_id": "A2NKxHr2Khc7rWg1lj5xfw", "longitude": -79.8874, "stars": 3.0, "latitude": 40.4869}, {"review_count": 3, "name": "Bad Azz BBQ", "business_id": "a2rZNOWutYXFLsz74M1Fng", "longitude": -79.9781, "stars": 4.5, "latitude": 40.3843}, {"review_count": 17, "name": "Smithfield Cafe", "business_id": "A2XkbJ07hrR80t0EFgLikQ", "longitude": -79.9972, "stars": 3.5, "latitude": 40.4426}, {"review_count": 112, "name": "Renaissance Pittsburgh Hotel", "business_id": "A38wziZJdYoijhC5S6uWCQ", "longitude": -80.0023, "stars": 4.0, "latitude": 40.4438}, {"review_count": 3, "name": "One Oxford Centre", "business_id": "A3EEauNaKb-keqignlBZkA", "longitude": -79.9989, "stars": 4.0, "latitude": 40.438}, {"review_count": 12, "name": "Bloom Cigar Company", "business_id": "A3ryEM41LVJ8WPTQLDzbHg", "longitude": -79.9866, "stars": 4.5, "latitude": 40.429}, {"review_count": 8, "name": "The Grateful Deli & Catering Company", "business_id": "a5t_OgKm0Q4kEDZ3wTekfg", "longitude": -79.9557, "stars": 4.0, "latitude": 40.4656}, {"review_count": 127, "name": "Dinette", "business_id": "A61mX9Ed_txnw-S9idIdZg", "longitude": -79.9255, "stars": 3.5, "latitude": 40.4596}, {"review_count": 12, "name": "The Barre Code", "business_id": "a7G50Gg_cXsVXI4JhxDsGA", "longitude": -79.9357, "stars": 4.5, "latitude": 40.4509}, {"review_count": 25, "name": "S Aiken Bar & Grille", "business_id": "a7lkm_8HM9izrfJWhAK8iA", "longitude": -79.9352, "stars": 2.5, "latitude": 40.4505}, {"review_count": 5, "name": "Mr Magic Car Wash", "business_id": "a8iKaMFikYzoARDkrxnybA", "longitude": -80.0322, "stars": 4.5, "latitude": 40.3699}, {"review_count": 40, "name": "Donatos Fox Chapel", "business_id": "a9-qixaIQftb4HNZz4ocIw", "longitude": -79.8828, "stars": 3.5, "latitude": 40.4883}, {"review_count": 5, "name": "Pampered Pet", "business_id": "a9oirhFjRUDP2rXZeAoJkw", "longitude": -79.9844, "stars": 4.0, "latitude": 40.3653}, {"review_count": 3, "name": "Wendy's", "business_id": "a9xP7sxbeGQo7HRfebhbnA", "longitude": -80.0317, "stars": 1.5, "latitude": 40.3698}, {"review_count": 12, "name": "Wiseguys Pizza", "business_id": "AAcw9y30cRuMo0oa8UBiIw", "longitude": -80.0311, "stars": 3.0, "latitude": 40.4763}, {"review_count": 93, "name": "Buca di Beppo Italian Restaurant", "business_id": "aACX0qwz9gCm3ieEaQhyXg", "longitude": -80.0016, "stars": 2.5, "latitude": 40.431}, {"review_count": 3, "name": "La Vie en Rose", "business_id": "aAlyocY0u8dWT2L0Br6mJQ", "longitude": -79.9975, "stars": 3.5, "latitude": 40.4379}, {"review_count": 4, "name": "Teabags", "business_id": "AANB0f7QapfE3WxDiqb9hA", "longitude": -79.9548, "stars": 4.0, "latitude": 40.4652}, {"review_count": 9, "name": "lululemon athletica", "business_id": "ab1lM5PewY51cNBjYx2o_g", "longitude": -79.933, "stars": 3.0, "latitude": 40.4514}, {"review_count": 9, "name": "Sunseri Moving", "business_id": "ABCviyh45OiFOGyuvrgAZg", "longitude": -79.9473, "stars": 3.0, "latitude": 40.4647}, {"review_count": 3, "name": "East Coast Tanning", "business_id": "abjCeXv_-gplOrqplHytZQ", "longitude": -79.9808, "stars": 1.5, "latitude": 40.4286}, {"review_count": 6, "name": "Cent Anni's", "business_id": "Abl2L79Xo3RMMxjafaJ6MQ", "longitude": -80.0255, "stars": 3.5, "latitude": 40.3992}, {"review_count": 16, "name": "Franktuary Truck", "business_id": "aBXz47ZGq4tvdayDQryhyw", "longitude": -79.9934, "stars": 4.0, "latitude": 40.4475}, {"review_count": 4, "name": "Big Poppa's Homecookin", "business_id": "AbyX00VmW_nlWw2td3faDQ", "longitude": -79.9559, "stars": 4.5, "latitude": 40.4453}, {"review_count": 9, "name": "The Midwife Center For Birth & Women's Health", "business_id": "AcD5G-u_GvLSnL4Vppq80A", "longitude": -79.9751, "stars": 4.5, "latitude": 40.4575}, {"review_count": 45, "name": "Georgetowne Inn", "business_id": "AcjaEcJkm0Fnld-obqFtqQ", "longitude": -80.0193, "stars": 2.0, "latitude": 40.4385}, {"review_count": 5, "name": "Pittsburgh Pie Guy", "business_id": "acvpqVAsH8steBaqjCCBaQ", "longitude": -79.9959, "stars": 5.0, "latitude": 40.4406}, {"review_count": 115, "name": "Cioppino", "business_id": "AD0FE_5dM7pWy5YdbMZaGQ", "longitude": -79.9823, "stars": 4.0, "latitude": 40.4541}, {"review_count": 9, "name": "Terror Town", "business_id": "AD5dYhKTUh2BdFXAd-IYPQ", "longitude": -79.9868, "stars": 3.0, "latitude": 40.4503}, {"review_count": 4, "name": "KD's Klean Ups", "business_id": "ADEAmLIP2Px02oErSef5KQ", "longitude": -80.002, "stars": 2.0, "latitude": 40.4384}, {"review_count": 4, "name": "Simmie's Restaurant", "business_id": "aEd_nDZnzUwV27Cic8VHeQ", "longitude": -79.8754, "stars": 4.5, "latitude": 40.4581}, {"review_count": 3, "name": "Pollock's Cafe", "business_id": "AEgAEU6ogGxFTKsWIc2zVg", "longitude": -79.9509, "stars": 3.5, "latitude": 40.4623}, {"review_count": 8, "name": "The UPS Store", "business_id": "AehBBxg4SIPIPT0XGbPuDw", "longitude": -79.9545, "stars": 2.0, "latitude": 40.4429}, {"review_count": 12, "name": "Wood Street Galleries", "business_id": "AehuBK7aJZM76mAmQ7KL2w", "longitude": -79.9996, "stars": 4.0, "latitude": 40.4423}, {"review_count": 15, "name": "Greenfield Veterinary Hospital", "business_id": "AEvxAw-qe9iPSsIjlNE2JQ", "longitude": -79.9393, "stars": 3.5, "latitude": 40.4265}, {"review_count": 3, "name": "City Locksmith Pittsburgh", "business_id": "AfepPcFqr4FNnkXmeIzpww", "longitude": -79.927, "stars": 3.5, "latitude": 40.459}, {"review_count": 10, "name": "Salem Halal Meats & Groceries", "business_id": "aft5N5DwIaIzQzwKv7lLvg", "longitude": -79.9533, "stars": 4.5, "latitude": 40.44}, {"review_count": 3, "name": "Kurt's Notary Service", "business_id": "agWoVPmlGkr9Wr_k6trlSw", "longitude": -79.9795, "stars": 5.0, "latitude": 40.428}, {"review_count": 24, "name": "Point State Park Fountain", "business_id": "agXlCPNuO101WBthbmv5vQ", "longitude": -80.0126, "stars": 5.0, "latitude": 40.4419}, {"review_count": 6, "name": "Squirrel Hill Sports Bar", "business_id": "aH-EzK0bxkUvukAokXDy0A", "longitude": -79.9224, "stars": 3.0, "latitude": 40.4295}, {"review_count": 26, "name": "Zorba's Gyros", "business_id": "AH1PrZQDIdjpKgy1z8XxUg", "longitude": -79.9995, "stars": 3.5, "latitude": 40.4387}, {"review_count": 30, "name": "Bona Terra Restaurant", "business_id": "aHerF5k5pkMDTdNSpIdTyw", "longitude": -79.9332, "stars": 4.5, "latitude": 40.4946}, {"review_count": 8, "name": "McDonald's", "business_id": "ahmLb4mLZ-pEiQZVdBqKdw", "longitude": -80.0035, "stars": 1.5, "latitude": 40.4412}, {"review_count": 29, "name": "Planet Fitness - Pittsburgh - Edgewood", "business_id": "aHMUJ20cDrnByCbEjAMK8A", "longitude": -79.8902, "stars": 4.0, "latitude": 40.4268}, {"review_count": 3, "name": "Rite Aid", "business_id": "aHQfnf5HjsAYgSa-I74SmQ", "longitude": -79.9344, "stars": 3.0, "latitude": 40.4586}, {"review_count": 9, "name": "Starbucks", "business_id": "aiDMh26ZEatoEt8JZb4pfg", "longitude": -79.9397, "stars": 3.0, "latitude": 40.4561}, {"review_count": 5, "name": "Amazing Books", "business_id": "aIeRlSkbFpQtIlmKQtzeDA", "longitude": -79.923, "stars": 5.0, "latitude": 40.4339},