[{"review_count": 3, "name": "Castle Tavern", "business_id": "--7PRjnsjMA6uhPK8mW13Q", "longitude": -80.0089, "stars": 2.5, "latitude": 40.3719}, {"review_count": 74, "name": "Gooski's", "business_id": "-1lvWTeV_RI1weq8FTnPRw", "longitude": -79.9665, "stars": 4.5, "latitude": 40.4568}, {"review_count": 100, "name": "Redbeard's On Sixth", "business_id": "-4bNlx03GsXzgkHZwTrMaw", "longitude": -80.002, "stars": 3.0, "latitude": 40.4423}, {"review_count": 183, "name": "Oishii Bento", "business_id": "-a22bjfNCVL0gvKpd6RakA", "longitude": -79.9572, "stars": 4.0, "latitude": 40.4419}, {"review_count": 60, "name": "Pleasure Bar and Restaurant", "business_id": "-Nanlb7SYXObqQ6dZ49UOg", "longitude": -79.9487, "stars": 3.0, "latitude": 40.4617}, {"review_count": 29, "name": "Mahoney's Restaurant", "business_id": "-nfzEVOVvmDSFbxvBsllGQ", "longitude": -79.9963, "stars": 2.5, "latitude": 40.4436}, {"review_count": 289, "name": "Sonoma Grille", "business_id": "0ayh3LxJwSbJEOlBCx9APA", "longitude": -79.9965, "stars": 3.5, "latitude": 40.4444}, {"review_count": 15, "name": "Gandy Dancer Saloon", "business_id": "0MmjeVacAd-Moe8CesiB_Q", "longitude": -80.0016, "stars": 4.0, "latitude": 40.431}, {"review_count": 12, "name": "1311", "business_id": "0NcAGBrIXSde76VNgtSj6g", "longitude": -79.9848, "stars": 4.0, "latitude": 40.429}, {"review_count": 42, "name": "Il Tetto:  A Rooftop Beer Garden", "business_id": "0ORPehdGZci1Z_BTKe_5VA", "longitude": -79.9964, "stars": 3.0, "latitude": 40.444}, {"review_count": 31, "name": "Embury", "business_id": "0OXrM5rp0dT8DcxqQJMBXw", "longitude": -79.9816, "stars": 4.0, "latitude": 40.4525}, {"review_count": 3, "name": "River City Inn", "business_id": "1F83eUuzmPW6PVGJtDgcQA", "longitude": -80.0033, "stars": 3.5, "latitude": 40.4392}, {"review_count": 5, "name": "Verdetto's Bar & Restaurant", "business_id": "1fSlarYpCHK7gGeQ02CiMg", "longitude": -79.9969, "stars": 4.0, "latitude": 40.4553}, {"review_count": 153, "name": "Silk Elephant", "business_id": "1JcoUEPkcGQtCEed-OdezQ", "longitude": -79.923, "stars": 4.0, "latitude": 40.4378}, {"review_count": 82, "name": "Squirrel Hill Cafe", "business_id": "1Kuuu75LVwr5-1OQ3Zv71w", "longitude": -79.9227, "stars": 4.0, "latitude": 40.4379}, {"review_count": 12, "name": "Juice Box Cafe", "business_id": "1mCFRovRzuNNgXNf_YDhkw", "longitude": -79.9322, "stars": 4.0, "latitude": 40.4521}, {"review_count": 89, "name": "Little Tokyo Bistro", "business_id": "1uPTCXmcAVujpLs1ieLUzg", "longitude": -79.9753, "stars": 4.0, "latitude": 40.4282}, {"review_count": 52, "name": "Benihana", "business_id": "1vQLTKwmcmZXtNzfKEvMmA", "longitude": -80.0703, "stars": 3.0, "latitude": 40.3923}, {"review_count": 101, "name": "Tonic Bar & Grill", "business_id": "1zKH87sjLpRr8XDKmk7j1g", "longitude": -79.9955, "stars": 3.5, "latitude": 40.4439}, {"review_count": 27, "name": "Cruze Bar", "business_id": "2jSTkJa3wLO0aE0uI3lpzw", "longitude": -79.9875, "stars": 3.0, "latitude": 40.4495}, {"review_count": 66, "name": "Monterey Pub", "business_id": "2KiXw5gtGJfDK1jw9jJ5wA", "longitude": -80.0132, "stars": 4.5, "latitude": 40.4556}, {"review_count": 276, "name": "Casbah", "business_id": "2SwC8wqpZC4B9iFVTgYT9A", "longitude": -79.9248, "stars": 4.0, "latitude": 40.4581}, {"review_count": 36, "name": "Howl at the Moon", "business_id": "2X32M84ejYIAC6HsrT2gpw", "longitude": -80.0002, "stars": 3.0, "latitude": 40.4439}, {"review_count": 288, "name": "D's Six Pax & Dogz", "business_id": "2X5G4Ujq0s4Wfn4TC7gX0g", "longitude": -79.8938, "stars": 4.5, "latitude": 40.432}, {"review_count": 63, "name": "Houlihan's", "business_id": "2Yv6Tgb5mpoEo3_EIpKs3g", "longitude": -80.0046, "stars": 3.0, "latitude": 40.433}, {"review_count": 29, "name": "Osaka", "business_id": "30yHpGZufQvUkATZPv5wEw", "longitude": -80.0712, "stars": 3.5, "latitude": 40.3905}, {"review_count": 5, "name": "Seven Cee's", "business_id": "34TBKRXYq1JHe4kYlHW2Eg", "longitude": -79.9485, "stars": 4.0, "latitude": 40.4617}, {"review_count": 12, "name": "Kelly's Korner", "business_id": "36IRBzrYrVnUI-aC8qytCQ", "longitude": -79.9569, "stars": 4.0, "latitude": 40.4707}, {"review_count": 59, "name": "Sidelines Bar & Grill", "business_id": "3BNomgNXuzR-Yfc2LbY6sQ", "longitude": -79.9723, "stars": 4.0, "latitude": 40.4855}, {"review_count": 11, "name": "S Bar", "business_id": "3dtZprG08noZiOuHc5WoUA", "longitude": -79.9814, "stars": 3.0, "latitude": 40.4291}, {"review_count": 7, "name": "The Bar 2132", "business_id": "3Iv8lruEzrPVw8RR6I8ybg", "longitude": -79.975, "stars": 3.0, "latitude": 40.4284}, {"review_count": 4, "name": "Jamba Juice", "business_id": "3LKcR-g6Ok3i5EtR_GkJQg", "longitude": -79.9911, "stars": 4.0, "latitude": 40.4378}, {"review_count": 8, "name": "McMinn's Irish Pub", "business_id": "3M0IdqpLqqXFuOtPF0DyzQ", "longitude": -80.0279, "stars": 3.5, "latitude": 40.3639}, {"review_count": 12, "name": "Puffs n Stuff", "business_id": "3obPG5F_6rbAu86CuiNW4g", "longitude": -80.0518, "stars": 2.5, "latitude": 40.357}, {"review_count": 54, "name": "Silky's Pub", "business_id": "3zgswf_NfBJpeAoWeTkgMA", "longitude": -79.9423, "stars": 4.0, "latitude": 40.4583}, {"review_count": 8, "name": "Living Juicy", "business_id": "497fzDpPrMlisVRmvY8cmA", "longitude": -79.9276, "stars": 4.5, "latitude": 40.458}, {"review_count": 55, "name": "Tiki Lounge", "business_id": "4aFpqIBq-dFz7Fu1sIL6iA", "longitude": -79.9774, "stars": 3.0, "latitude": 40.4288}, {"review_count": 50, "name": "Andys Wine Bar", "business_id": "4D2FmqwuQ_OXypQkQqQZcw", "longitude": -80.0021, "stars": 3.5, "latitude": 40.4414}, {"review_count": 93, "name": "Bar Louie", "business_id": "4eRlRYQ4iBedD7Ymiuah7Q", "longitude": -80.0053, "stars": 2.5, "latitude": 40.4343}, {"review_count": 49, "name": "Apteka", "business_id": "4mARK9ioer25qlifSg96YQ", "longitude": -79.9493, "stars": 4.5, "latitude": 40.4656}, {"review_count": 88, "name": "Roman Bistro", "business_id": "4mNRylz5SZZ-dhJOLmfkBg", "longitude": -79.8503, "stars": 3.5, "latitude": 40.4195}, {"review_count": 57, "name": "Mullen's Bar & Grill", "business_id": "4uOVj07uHLJZ-oVH36MB4w", "longitude": -80.004, "stars": 2.5, "latitude": 40.4484}, {"review_count": 19, "name": "The Backstage Bar", "business_id": "4WiL3UaXCxj4lbWwsckisg", "longitude": -80.001, "stars": 3.5, "latitude": 40.4432}, {"review_count": 12, "name": "Johnny O's Bar & Grille", "business_id": "4wYmywBhrUMDn5-oAszHKg", "longitude": -79.9325, "stars": 2.5, "latitude": 40.4517}, {"review_count": 60, "name": "Feng Japanese Steak Hibachi & Sushi House", "business_id": "53qWOpcsaMw4ZQAJi5OIbw", "longitude": -79.9529, "stars": 4.0, "latitude": 40.464}, {"review_count": 5, "name": "Chief's Cafe", "business_id": "5Hd4vp5bKPq-W8zPwabYhw", "longitude": -79.9523, "stars": 4.0, "latitude": 40.4521}, {"review_count": 74, "name": "Mario's South Side Saloon", "business_id": "5IbZ0LjSydLAfB9NOyYOIQ", "longitude": -79.9829, "stars": 3.5, "latitude": 40.4287}, {"review_count": 65, "name": "Vallozzis Pittsburgh", "business_id": "5NcgSVx0fJFYManZSJyRQA", "longitude": -80.0015, "stars": 3.5, "latitude": 40.4411}, {"review_count": 27, "name": "Buford's Kitchen", "business_id": "5_tfTFBpzSskbnmJKUU6oA", "longitude": -79.9904, "stars": 2.0, "latitude": 40.4386}, {"review_count": 8, "name": "Obey House Tavern", "business_id": "6e-K5VPERzoyLP5_1c69cw", "longitude": -80.087, "stars": 4.0, "latitude": 40.4418}, {"review_count": 9, "name": "Inn-Termission Lounge", "business_id": "6FRqgRAiSwqWbbUCz5XIBw", "longitude": -79.9787, "stars": 2.0, "latitude": 40.4283}, {"review_count": 66, "name": "Mario's East Side Saloon", "business_id": "6jBxUWn4HYN6w5-ZTadmFA", "longitude": -79.9339, "stars": 3.5, "latitude": 40.4509}, {"review_count": 12, "name": "Blinky's Noble Grill & Bar", "business_id": "6Ro5tqafcr2MZori8DIYnw", "longitude": -80.0557, "stars": 3.5, "latitude": 40.4272}, {"review_count": 33, "name": "Mullaneys Harp and Fiddle", "business_id": "6xEl2PDJulIp1PfWqa7-aA", "longitude": -79.9809, "stars": 3.5, "latitude": 40.4534}, {"review_count": 12, "name": "Pennsbury Pub & Grill", "business_id": "6_T2yecBZf9adTu5-moFug", "longitude": -80.0993, "stars": 4.0, "latitude": 40.4294}, {"review_count": 5, "name": "Dirty Harry's", "business_id": "7AEj6ZdpIie_G3ANgC3oLg", "longitude": -80.0065, "stars": 2.0, "latitude": 40.434}, {"review_count": 42, "name": "Umbrella Cafe", "business_id": "7B7ncPm1BLWDhvWFdPdVAA", "longitude": -79.9962, "stars": 5.0, "latitude": 40.4437}, {"review_count": 5, "name": "Uptown", "business_id": "7e0HR7cnw9_57dNAVHW3pA", "longitude": -79.9903, "stars": 5.0, "latitude": 40.4388}, {"review_count": 95, "name": "Muddy Waters Oyster Bar", "business_id": "7GTl6b4TwEzkbUkq0C8b4w", "longitude": -79.9254, "stars": 4.0, "latitude": 40.4602}, {"review_count": 14, "name": "Apple Inn", "business_id": "7KjZ49Xrb6QWjnu5NlxzVw", "longitude": -80.0341, "stars": 3.0, "latitude": 40.3948}, {"review_count": 12, "name": "Murphy's Tap Room", "business_id": "7lDNKKxMV84KIS1OVZOepw", "longitude": -79.8939, "stars": 3.0, "latitude": 40.4325}, {"review_count": 15, "name": "Sinobi", "business_id": "7vdI1q6ptMcKmbmePLxTsg", "longitude": -80.0021, "stars": 2.5, "latitude": 40.4411}, {"review_count": 73, "name": "Lot 17", "business_id": "7XXmky6YYjsvKFwho_eavg", "longitude": -79.9502, "stars": 4.0, "latitude": 40.4626}, {"review_count": 6, "name": "MixStirs Cafe", "business_id": "7yCFfHHcs88ffYIa3NTumA", "longitude": -79.9962, "stars": 3.0, "latitude": 40.4404}, {"review_count": 9, "name": "Le Brew House", "business_id": "825LWZwpTWU2-Md4DuMCrw", "longitude": -79.9693, "stars": 3.0, "latitude": 40.4275}, {"review_count": 45, "name": "Bar 11", "business_id": "83qWae4b6toQpuCLnfSCTQ", "longitude": -79.9875, "stars": 4.0, "latitude": 40.4272}, {"review_count": 18, "name": "Caliente Pizza & Draft House", "business_id": "8M1zE-YhjABqG71JhN-JEA", "longitude": -80.0367, "stars": 3.0, "latitude": 40.3763}, {"review_count": 15, "name": "Mi Ranchito", "business_id": "8MQoAj0bqEmGgJkRi14HtA", "longitude": -79.9548, "stars": 3.0, "latitude": 40.4385}, {"review_count": 14, "name": "Tavern In The Wall", "business_id": "8xvnIG6zg2cA-thJJ5NW8A", "longitude": -79.9046, "stars": 3.5, "latitude": 40.4905}, {"review_count": 5, "name": "5ive Lounge", "business_id": "9dQe2KwoHKJvZDHUXlnU0Q", "longitude": -80.004, "stars": 3.0, "latitude": 40.4335}, {"review_count": 55, "name": "Pittsburgh Winery", "business_id": "9iwONFY-aRZA1mgmVgm2ZQ", "longitude": -79.9755, "stars": 4.5, "latitude": 40.4573}, {"review_count": 4, "name": "Cricket Lounge", "business_id": "a0ANvc_KMLS4kFNCbSu-4A", "longitude": -79.945, "stars": 4.5, "latitude": 40.4545}, {"review_count": 25, "name": "S Aiken Bar & Grille", "business_id": "a7lkm_8HM9izrfJWhAK8iA", "longitude": -79.9352, "stars": 2.5, "latitude": 40.4505}, {"review_count": 3, "name": "Pollock's Cafe", "business_id": "AEgAEU6ogGxFTKsWIc2zVg", "longitude": -79.9509, "stars": 3.5, "latitude": 40.4623}, {"review_count": 6, "name": "Squirrel Hill Sports Bar", "business_id": "aH-EzK0bxkUvukAokXDy0A", "longitude": -79.9224, "stars": 3.0, "latitude": 40.4295}, {"review_count": 29, "name": "Jekyl & Hyde", "business_id": "AJL0RCaSSA1NBay-XJ1pJw", "longitude": -79.981, "stars": 4.0, "latitude": 40.4266}, {"review_count": 9, "name": "Irrawaddy Sushi & Thai Cuisine", "business_id": "ApGNW-bYORoVfrmIxfiN2Q", "longitude": -80.0035, "stars": 2.5, "latitude": 40.4412}, {"review_count": 38, "name": "Perl\u00e9", "business_id": "ARaVjaEsdxv02zyTxL5shw", "longitude": -80.0029, "stars": 3.5, "latitude": 40.441}, {"review_count": 16, "name": "KBOX Karaoke House", "business_id": "avMB_pG3lBy_M3rz5voSQw", "longitude": -79.9491, "stars": 4.0, "latitude": 40.4459}, {"review_count": 64, "name": "Simpatico Espresso", "business_id": "AvVMhXghvAE2_JGWXoC7IA", "longitude": -79.9966, "stars": 4.5, "latitude": 40.4414}, {"review_count": 74, "name": "Redbeard's Bar & Grill", "business_id": "AwQwf4mbaJfE4F5Tk2KQRg", "longitude": -80.0072, "stars": 3.5, "latitude": 40.4306}, {"review_count": 9, "name": "Urban Hookah Lounge", "business_id": "aXR5-C3zCnXGYhDC3pFuiQ", "longitude": -79.9546, "stars": 3.5, "latitude": 40.4366}, {"review_count": 60, "name": "No. 1 Sushi Sushi", "business_id": "AXxtBH6ctfRD_pPh9ZsANQ", "longitude": -80.0021, "stars": 4.5, "latitude": 40.4411}, {"review_count": 10, "name": "Legacy Lanes Inc", "business_id": "B21eTER1QvmU8IRgBP9CNQ", "longitude": -79.9968, "stars": 3.5, "latitude": 40.35}, {"review_count": 5, "name": "Bar Room", "business_id": "B2ORp5G1QxI0e0n1UiG0UQ", "longitude": -80.003, "stars": 3.0, "latitude": 40.4323}, {"review_count": 5, "name": "Friends Bar", "business_id": "B8nDXstqrTsXAE_cGd_9vQ", "longitude": -79.9223, "stars": 4.0, "latitude": 40.4294}, {"review_count": 22, "name": "Gene's Place", "business_id": "BBfTiaMxtNOSa_sthMy9Pg", "longitude": -79.9561, "stars": 4.0, "latitude": 40.4394}, {"review_count": 4, "name": "Alto Lounge", "business_id": "Bi-ykvEO5I6ZubfKYc-hAg", "longitude": -79.935, "stars": 2.5, "latitude": 40.4511}, {"review_count": 12, "name": "Elixir Ultra Lounge", "business_id": "BMojKb3OCB4NWRkvHnHB6Q", "longitude": -79.9833, "stars": 4.0, "latitude": 40.4287}, {"review_count": 13, "name": "The Flats on Carson", "business_id": "bR0JGVxPKP5UhNpRwZhT0Q", "longitude": -79.9828, "stars": 2.5, "latitude": 40.4289}, {"review_count": 75, "name": "Little Asia", "business_id": "bulkC_6uGn5FM0vz3Kt0ZQ", "longitude": -79.9485, "stars": 2.5, "latitude": 40.4455}, {"review_count": 739, "name": "Church Brew Works", "business_id": "bwu0cUZfksuu-uzTPrrl2A", "longitude": -79.9644, "stars": 3.5, "latitude": 40.4622}, {"review_count": 44, "name": "Sphinx Cafe", "business_id": "bY0BbE_PFWnRjf5j48CjKg", "longitude": -79.9537, "stars": 3.0, "latitude": 40.4381}, {"review_count": 12, "name": "941 Saloon", "business_id": "C1KYIuyfICK7M_HMFpJrXg", "longitude": -79.9966, "stars": 3.0, "latitude": 40.4436}, {"review_count": 70, "name": "Creekhouse", "business_id": "C2BferG4f-WQJQuTvyRzlA", "longitude": -80.0808, "stars": 3.5, "latitude": 40.4403}, {"review_count": 91, "name": "Acacia", "business_id": "c7hwytmur_DNYnzdBrz9ZA", "longitude": -79.9758, "stars": 4.5, "latitude": 40.4282}, {"review_count": 3, "name": "White Eagle", "business_id": "cA3gmj6NUt40Us45ArSZdA", "longitude": -79.9729, "stars": 3.5, "latitude": 40.4281}, {"review_count": 53, "name": "Remedy", "business_id": "CaGBTY6UWKY252OVgWRSKA", "longitude": -79.9555, "stars": 4.0, "latitude": 40.479}, {"review_count": 53, "name": "Spork", "business_id": "Ccwt0ZHidfQcPRetI7xGGA", "longitude": -79.9354, "stars": 4.0, "latitude": 40.4645}, {"review_count": 90, "name": "Hemingway's Cafe", "business_id": "CiG5CvHxYQl5DZ704a4viA", "longitude": -79.9564, "stars": 3.5, "latitude": 40.4423}, {"review_count": 445, "name": "Kaya", "business_id": "cjD2yGRhT5yaSj_KP55Ptw", "longitude": -79.9842, "stars": 4.0, "latitude": 40.4517}, {"review_count": 3, "name": "Baba D's", "business_id": "cJgUGE4iukuXB6QlYmHwmA", "longitude": -79.9751, "stars": 3.5, "latitude": 40.4284}, {"review_count": 55, "name": "5801 Video Lounge and Caf\u00e9", "business_id": "CJjyZDvdB20MZXY6YgctAg", "longitude": -79.9308, "stars": 3.5, "latitude": 40.4564}, {"review_count": 130, "name": "Butterjoint", "business_id": "clvKNlfy-rzqiXlSjibv8g", "longitude": -79.9507, "stars": 4.0, "latitude": 40.45}, {"review_count": 14, "name": "Souper Bowl", "business_id": "CLZwf-pAbUXRKiWhnPo2Qg", "longitude": -79.9913, "stars": 3.0, "latitude": 40.4387}, {"review_count": 48, "name": "Club Cafe", "business_id": "cMye2oCRy1qAvwMK-7i6JA", "longitude": -79.9866, "stars": 4.0, "latitude": 40.4289}, {"review_count": 106, "name": "Savoy", "business_id": "CnKQgNyBmIvTE7zfegmV7Q", "longitude": -79.9781, "stars": 3.5, "latitude": 40.4555}, {"review_count": 24, "name": "Hookah Bookah Cafe", "business_id": "cs9iu_1abcCXOuelaO-Gfg", "longitude": -79.9696, "stars": 3.0, "latitude": 40.4275}, {"review_count": 26, "name": "Dee's Cafe", "business_id": "CSsVUZNYrROBdn6YQoDgOQ", "longitude": -79.9847, "stars": 3.5, "latitude": 40.4286}, {"review_count": 8, "name": "Spice Cafe", "business_id": "CUjHTa8fE_0NhNA_I9E1XQ", "longitude": -79.9552, "stars": 4.5, "latitude": 40.4389}, {"review_count": 26, "name": "The Wine Loft", "business_id": "CvQgZqpSrM2cRM7_xR2iWA", "longitude": -79.9642, "stars": 3.0, "latitude": 40.4279}, {"review_count": 8, "name": "The Backdraft Bar & Grill", "business_id": "cWDk7vNfPvythDpvVQNf1w", "longitude": -79.9676, "stars": 4.0, "latitude": 40.3861}, {"review_count": 144, "name": "Toast! Kitchen & Wine Bar", "business_id": "CZuTec4z5_WAFUwalQRhqA", "longitude": -79.9436, "stars": 4.0, "latitude": 40.4553}, {"review_count": 3, "name": "Maiku Sushi", "business_id": "d14MsNNhLJs2FW7492fkkQ", "longitude": -79.9873, "stars": 5.0, "latitude": 40.4491}, {"review_count": 13, "name": "Rusty Dory Pub", "business_id": "d1soHzaIu_jE6CrODyjPaQ", "longitude": -80.0677, "stars": 3.5, "latitude": 40.4958}, {"review_count": 99, "name": "Bill's Bar & Burger", "business_id": "DAtq-oX4tWNb19qvMZC3RA", "longitude": -79.9947, "stars": 3.0, "latitude": 40.4442}, {"review_count": 3, "name": "Pregame", "business_id": "daxmUMiODbiQAFaoaAVs4g", "longitude": -79.9835, "stars": 4.5, "latitude": 40.4276}, {"review_count": 6, "name": "Shadyside Hideaway Bar", "business_id": "dBrAs-XRIT9Sp3OleVEuQg", "longitude": -79.9254, "stars": 3.0, "latitude": 40.458}, {"review_count": 39, "name": "Wings Over Pittsburgh", "business_id": "dgK5LYQonYfKLtlY4NxgCA", "longitude": -79.9691, "stars": 3.5, "latitude": 40.4277}, {"review_count": 110, "name": "Sushi Kim Restaurant", "business_id": "dHDi4wCcjsOR6vcZ8oOIoA", "longitude": -79.9917, "stars": 3.0, "latitude": 40.4465}, {"review_count": 17, "name": "Sushi Fuku", "business_id": "DhQhHH6sFHTfVxdLE10T3A", "longitude": -79.9485, "stars": 3.0, "latitude": 40.4446}, {"review_count": 3, "name": "Sincerely Yogurt", "business_id": "DiOJoMhVtKdcGYG9fNfo_Q", "longitude": -79.9619, "stars": 4.5, "latitude": 40.4391}, {"review_count": 51, "name": "Cappy's Cafe", "business_id": "DkX3YoxhH4uADsgVgQThew", "longitude": -79.9344, "stars": 3.0, "latitude": 40.4511}, {"review_count": 83, "name": "Claddagh Irish Pub", "business_id": "DMjGB9va_stopLPfUYJelA", "longitude": -79.9653, "stars": 3.0, "latitude": 40.4279}, {"review_count": 7, "name": "Embody Natural Health", "business_id": "dpOdiqdJ5fhbRhvqlRar_g", "longitude": -79.951, "stars": 4.5, "latitude": 40.4829}, {"review_count": 11, "name": "Nox's Tavern and Grille", "business_id": "dPxB4lKihaL4CsXooHHtTg", "longitude": -79.8626, "stars": 4.5, "latitude": 40.4925}, {"review_count": 22, "name": "Stone Pepper's Grill Bar", "business_id": "dT_epUexjLh7s7fTCy_cNw", "longitude": -80.0511, "stars": 3.0, "latitude": 40.3525}, {"review_count": 65, "name": "The Summit", "business_id": "Dwc7RvkEyrUtfIk-Ygw1AQ", "longitude": -80.0075, "stars": 4.0, "latitude": 40.4307}, {"review_count": 51, "name": "Tai Pei", "business_id": "dwz55gqPZwSBD74yFFb27g", "longitude": -79.8806, "stars": 3.0, "latitude": 40.4877}, {"review_count": 81, "name": "Primanti Bros.", "business_id": "dXPQDQLHzcExUDZV_dcAGA", "longitude": -80.0995, "stars": 4.0, "latitude": 40.4444}, {"review_count": 7, "name": "Mitchell's Tavern", "business_id": "DZ11986Sfe4vMo9Y3fHZ3g", "longitude": -79.9506, "stars": 3.0, "latitude": 40.4521}, {"review_count": 58, "name": "Triangle Bar & Grill", "business_id": "DzOPHyrG2XuVqKEvHCnN7w", "longitude": -79.888, "stars": 4.5, "latitude": 40.4176}, {"review_count": 49, "name": "Diesel Club Lounge", "business_id": "E5a7jOdolVv-LAHnDAEpew", "longitude": -79.9825, "stars": 3.5, "latitude": 40.429}, {"review_count": 90, "name": "Independent Brewing Company", "business_id": "e7HwvsagBGIXXygZDuNMNQ", "longitude": -79.9195, "stars": 4.0, "latitude": 40.4377}, {"review_count": 29, "name": "Bulldog Pub", "business_id": "EAghvlrSCshmw7dU6l03yA", "longitude": -79.9268, "stars": 4.5, "latitude": 40.4868}, {"review_count": 149, "name": "Plum Pan Asian Kitchen", "business_id": "emQkvcck-uqUanJafLIKOA", "longitude": -79.9255, "stars": 3.5, "latitude": 40.4595}, {"review_count": 62, "name": "Pints On Penn", "business_id": "eoCnHe4RVytI2C9DJlmbeA", "longitude": -79.964, "stars": 3.5, "latitude": 40.4643}, {"review_count": 43, "name": "Houlihan's", "business_id": "EOWYeAhHDAYmG7jtIBuq5w", "longitude": -80.0517, "stars": 3.5, "latitude": 40.3568}, {"review_count": 4, "name": "Tramp's Restaurant", "business_id": "EtnMSBRlMQWrdTla-jz9RA", "longitude": -80.0341, "stars": 3.5, "latitude": 40.4357}, {"review_count": 6, "name": "Pub In the Park", "business_id": "evIbqjnN4ePd9eT4L4WsIw", "longitude": -79.8975, "stars": 4.5, "latitude": 40.4214}, {"review_count": 16, "name": "Cupka's Cafe II", "business_id": "exz1kmKOapNfXT5CH72Xxg", "longitude": -79.9723, "stars": 3.0, "latitude": 40.4282}, {"review_count": 3, "name": "Steelhouse", "business_id": "EyCTFYEjN3hdKyGLWjm6HQ", "longitude": -80.0027, "stars": 1.5, "latitude": 40.4321}, {"review_count": 58, "name": "Zen Asian Diner", "business_id": "Ez29ELM7obiqamn3It7FcQ", "longitude": -79.9554, "stars": 3.0, "latitude": 40.4783}, {"review_count": 14, "name": "Pacific Ring", "business_id": "eZ9ryX8Ij8Ha4DGLteCK2g", "longitude": -79.9229, "stars": 3.0, "latitude": 40.4359}, {"review_count": 138, "name": "Ibiza Tapas & Wine Bar", "business_id": "ezi5Nz0gT5lk0nW1KTiYnw", "longitude": -79.9736, "stars": 3.0, "latitude": 40.4281}, {"review_count": 118, "name": "Winghart's Burger & Whiskey Bar", "business_id": "eZN1rBpqvr_JfDz_ovmGng", "longitude": -79.9831, "stars": 3.5, "latitude": 40.4291}, {"review_count": 41, "name": "Archie's", "business_id": "F2s1N1IvcNHHHsWJHIwKCg", "longitude": -79.9718, "stars": 3.5, "latitude": 40.4281}, {"review_count": 26, "name": "Casey's Draft House", "business_id": "f3L2Ibajhz10uL6ja_gTtw", "longitude": -79.98, "stars": 3.5, "latitude": 40.4289}, {"review_count": 3, "name": "Juice Up 412", "business_id": "fbqs1kYYcxowUWfowEkHYA", "longitude": -79.9253, "stars": 5.0, "latitude": 40.4604}, {"review_count": 8, "name": "Ref's", "business_id": "FCpqtFF1MGsXTiyC5im4bA", "longitude": -80.0059, "stars": 2.5, "latitude": 40.4338}, {"review_count": 19, "name": "Armand's Bar", "business_id": "FD6OocZdFUfE2J5H0WN4fA", "longitude": -79.9482, "stars": 3.5, "latitude": 40.4615}, {"review_count": 82, "name": "Bites and Brews", "business_id": "feQYxrwOTfUioQmiY_USew", "longitude": -79.9309, "stars": 3.5, "latitude": 40.4557}, {"review_count": 144, "name": "Hough's", "business_id": "fGTrdnKyM_wdT6niaxzU3Q", "longitude": -79.9403, "stars": 4.0, "latitude": 40.4263}, {"review_count": 9, "name": "GreenLight Juice", "business_id": "FHJffCErIMPEqnVb2-RT4Q", "longitude": -79.9232, "stars": 4.5, "latitude": 40.4334}, {"review_count": 133, "name": "Bakersfield Penn Ave", "business_id": "FJ8M_nW2hbh2JnJxEnZnjw", "longitude": -79.9966, "stars": 4.5, "latitude": 40.4439}, {"review_count": 8, "name": "IVP Bar & Grill", "business_id": "FoA6_OQR-r-ruoEEBw9sjw", "longitude": -79.9751, "stars": 2.0, "latitude": 40.4284}, {"review_count": 34, "name": "Bravo! Cucina Italiana", "business_id": "fPiw9qPglIBykva2DrNB5A", "longitude": -80.0512, "stars": 3.5, "latitude": 40.3565}, {"review_count": 3, "name": "The Coop", "business_id": "fPuWTlwtHXJtT7UMZKd1rg", "longitude": -79.9285, "stars": 4.5, "latitude": 40.4227}, {"review_count": 5, "name": "Zippy's Saloon", "business_id": "FS4qI8p68Pkf4wxHFzkJ5Q", "longitude": -80.0227, "stars": 3.5, "latitude": 40.3953}, {"review_count": 6, "name": "Pegasus Lounge", "business_id": "FsY-8nYOCXyj9FoVxbjzTQ", "longitude": -80.0376, "stars": 3.0, "latitude": 40.472}, {"review_count": 3, "name": "Dale's Bar & Grill", "business_id": "g7ZisoPA3Qmq8kyUrYSxwg", "longitude": -79.928, "stars": 2.5, "latitude": 40.4199}, {"review_count": 74, "name": "McFadden's Saloon", "business_id": "GARb9Hk4Y0YTjBl70DniVA", "longitude": -80.0076, "stars": 2.5, "latitude": 40.4463}, {"review_count": 19, "name": "Jamison's On West Liberty", "business_id": "gbceq4Rrg102sNjTX8PBvA", "longitude": -80.0395, "stars": 4.5, "latitude": 40.391}, {"review_count": 80, "name": "Blue Line Grille", "business_id": "gnOinDdd0TNIX6Q4DJnYyg", "longitude": -79.9903, "stars": 3.0, "latitude": 40.4388}, {"review_count": 31, "name": "Ugly Dog Saloon", "business_id": "gOQT85vsrCc_bIKaG4fGYg", "longitude": -80.0551, "stars": 3.5, "latitude": 40.4268}, {"review_count": 157, "name": "Hokkaido Seafood Buffet", "business_id": "H18C9tH4BPHkxan96bkMXQ", "longitude": -79.9241, "stars": 3.5, "latitude": 40.4155}, {"review_count": 14, "name": "Applebee's", "business_id": "h3la53L9-OX_HlfeAySh0Q", "longitude": -79.8887, "stars": 2.5, "latitude": 40.4273}, {"review_count": 280, "name": "Tamari", "business_id": "H75yc2Vp7d8wuAe339DpOA", "longitude": -79.9661, "stars": 4.0, "latitude": 40.4645}, {"review_count": 3, "name": "PD's Pub", "business_id": "HEZ8O_EvIBLHKgo93IkGTA", "longitude": -79.9223, "stars": 2.5, "latitude": 40.4293}, {"review_count": 10, "name": "Shale's Cafe", "business_id": "HI9CqiL7CeoiWz8hjvhgxg", "longitude": -79.9885, "stars": 4.5, "latitude": 40.4385}, {"review_count": 16, "name": "Sonny's Tavern", "business_id": "hkvmfv2v6y5rmhWBqnSkSA", "longitude": -79.9475, "stars": 4.0, "latitude": 40.4579}, {"review_count": 80, "name": "Yuva India Kitchen + Bar", "business_id": "howeWJgjp0m25gY4gRSsYA", "longitude": -79.949, "stars": 3.0, "latitude": 40.4448}, {"review_count": 4, "name": "The Loft Hookah Cafe & Vape Shop", "business_id": "HyT2zOAbOMjjAOBdqcIzyQ", "longitude": -79.9342, "stars": 5.0, "latitude": 40.4513}, {"review_count": 4, "name": "Red & Irene's Tavern", "business_id": "IAZvt5mkzX_W-VUPzSvfuA", "longitude": -79.978, "stars": 5.0, "latitude": 40.4267}, {"review_count": 32, "name": "Carson City Saloon", "business_id": "iemtmJWEDyc-AojaonX_Iw", "longitude": -79.9841, "stars": 3.5, "latitude": 40.4289}, {"review_count": 95, "name": "Katana", "business_id": "imANc2oROD976RWUM2owLw", "longitude": -80.0407, "stars": 3.5, "latitude": 40.3899}, {"review_count": 4, "name": "Freeport Pizza Kitchen and Bar", "business_id": "IQnq2pP-beGuCQcoAu3Z6g", "longitude": -79.8808, "stars": 2.5, "latitude": 40.4884}, {"review_count": 162, "name": "Max's Allegheny Tavern", "business_id": "IxQ1ATP_Wg_QujO9nywzcQ", "longitude": -79.9997, "stars": 4.0, "latitude": 40.4552}, {"review_count": 40, "name": "Red Tea House", "business_id": "jCyRkEpj7ma4xsZ9jyR5uQ", "longitude": -80.0658, "stars": 4.0, "latitude": 40.3925}, {"review_count": 3, "name": "AD's PCafe", "business_id": "jDb0hsWnAlSEefiCdoRt4Q", "longitude": -79.9576, "stars": 4.5, "latitude": 40.4397}, {"review_count": 28, "name": "Coach's Bottleshop & Grille", "business_id": "JFBg0EvHlRdyWWhe9Agl0g", "longitude": -80.043, "stars": 3.5, "latitude": 40.4003}, {"review_count": 4, "name": "Uncle Jimmy's", "business_id": "jHvJUb_fmE9KSIjCmbrRJQ", "longitude": -79.9546, "stars": 5.0, "latitude": 40.4365}, {"review_count": 76, "name": "Dive Bar & Grill", "business_id": "JId49VgiWOS30qK7tn3JXw", "longitude": -79.9552, "stars": 4.0, "latitude": 40.4797}, {"review_count": 92, "name": "Thai Hana", "business_id": "JiWGjXYrq4ehNeRhKSZqcw", "longitude": -79.9588, "stars": 3.5, "latitude": 40.4415}, {"review_count": 42, "name": "The Saloon of Mt. Lebanon", "business_id": "jJfTh2O3M2Q716akd9Dr9w", "longitude": -80.0441, "stars": 3.0, "latitude": 40.3822}, {"review_count": 146, "name": "Sienna On The Square", "business_id": "JKyWiuPDVJS4hUx-EPAXAA", "longitude": -80.0023, "stars": 4.0, "latitude": 40.4412}, {"review_count": 7, "name": "The Ave", "business_id": "Jo9RAtbZWSAN9JHl3HOEog", "longitude": -79.9315, "stars": 3.5, "latitude": 40.4558}, {"review_count": 8, "name": "Local Brewhouse", "business_id": "jpPC0jU7Efa-EAXakBTsaw", "longitude": -80.0041, "stars": 3.5, "latitude": 40.4482}, {"review_count": 147, "name": "Sharp Edge Beer Emporium", "business_id": "JuaQPvvWdbJ1B1Tn0jIt1w", "longitude": -79.9307, "stars": 3.5, "latitude": 40.46}, {"review_count": 51, "name": "Buckhead Saloon", "business_id": "jwqiMg68np1Fego956yYIw", "longitude": -80.0062, "stars": 2.5, "latitude": 40.4343}, {"review_count": 8, "name": "Yesterday's Bar & Grill", "business_id": "jy8aTtrmfxgY2P81jwSNFw", "longitude": -79.9424, "stars": 3.5, "latitude": 40.4257}, {"review_count": 26, "name": "Tusca Restaurant", "business_id": "jZaHqpXJNey8QV_G0S3Fgw", "longitude": -79.965, "stars": 2.0, "latitude": 40.4274}, {"review_count": 11, "name": "Clark Bar & Grill", "business_id": "k1A8pNspBPinGDivxkuDSA", "longitude": -80.0089, "stars": 3.5, "latitude": 40.449}, {"review_count": 3, "name": "Riggs Lounge & Restaurant", "business_id": "k5g1QvrWt-GrWa8JpBw7Ug", "longitude": -80.015, "stars": 4.0, "latitude": 40.4553}, {"review_count": 210, "name": "Sharp Edge", "business_id": "k8Vih-WEeO5Jmilhbm2xmg", "longitude": -79.9972, "stars": 3.5, "latitude": 40.4438}, {"review_count": 54, "name": "SAKE Asian Cuisine & Sushi Bar", "business_id": "ka8jpDoaKjCBSpBP8OvERA", "longitude": -79.9652, "stars": 3.5, "latitude": 40.4274}, {"review_count": 14, "name": "Gandy Dancer Saloon", "business_id": "Kb_IKB2BclV0EHkeKMvyLQ", "longitude": -80.0037, "stars": 3.5, "latitude": 40.4332}, {"review_count": 20, "name": "Wicked Fox", "business_id": "kDBg9lV8aqoULtczM6O8Og", "longitude": -79.8737, "stars": 4.0, "latitude": 40.4897}, {"review_count": 78, "name": "Gus' Cafe", "business_id": "KeJEHK-3LCsA7S3HckOvMg", "longitude": -79.958, "stars": 3.0, "latitude": 40.4751}, {"review_count": 142, "name": "Bigham Tavern", "business_id": "kGhwcN6hgxeJEZtNrKJnpg", "longitude": -80.0151, "stars": 4.0, "latitude": 40.4324}, {"review_count": 35, "name": "Eclipse Lounge", "business_id": "kGLM7M4G9LuxD9Y6p3NSPQ", "longitude": -79.9648, "stars": 4.0, "latitude": 40.4665}, {"review_count": 15, "name": "Ryan's Pub", "business_id": "Klog5rsTfJEf41Kqva3FsA", "longitude": -79.8972, "stars": 3.0, "latitude": 40.4394}, {"review_count": 18, "name": "Tavern 51", "business_id": "KnuN84OxoZeEIfFwBd8zbg", "longitude": -79.9811, "stars": 4.5, "latitude": 40.3571}, {"review_count": 14, "name": "Rock Room", "business_id": "kqmOzL836sk2GK9eObwi4A", "longitude": -79.9638, "stars": 4.0, "latitude": 40.458}, {"review_count": 28, "name": "Chili's", "business_id": "kwzqUgmdq9ZopW7dN95gsQ", "longitude": -79.8916, "stars": 2.0, "latitude": 40.4869}, {"review_count": 29, "name": "Park Place Pub", "business_id": "l2lC88_m5WMOLSChY4_XWQ", "longitude": -79.9209, "stars": 3.0, "latitude": 40.4762}, {"review_count": 72, "name": "Carmella's Plates & Pints", "business_id": "L3x-8hjCSSh5CdfJAeiDxg", "longitude": -79.9788, "stars": 4.0, "latitude": 40.4284}, {"review_count": 44, "name": "Andy's Sushi Bar", "business_id": "L5387MoRyx9orlRyYfCSPA", "longitude": -79.9859, "stars": 4.0, "latitude": 40.4501}, {"review_count": 3, "name": "Key West", "business_id": "L6yf7W3uvCHdLrmLmPLJ8Q", "longitude": -79.9606, "stars": 3.5, "latitude": 40.4959}, {"review_count": 7, "name": "Mugshots Cafe", "business_id": "L7d7iEiubIHC9RQHFNEMog", "longitude": -80.0711, "stars": 4.0, "latitude": 40.4391}, {"review_count": 26, "name": "Bierport", "business_id": "Lb2TBwZelvHqb5n-o4Zgww", "longitude": -79.9611, "stars": 4.0, "latitude": 40.4699}, {"review_count": 21, "name": "Howlers", "business_id": "Le58tt8I6HFgay1qnNG4iw", "longitude": -79.9514, "stars": 3.5, "latitude": 40.4631}, {"review_count": 120, "name": "Station", "business_id": "lKD5_XcBLzIX6QnSwobV5w", "longitude": -79.9485, "stars": 4.0, "latitude": 40.4611}, {"review_count": 53, "name": "The Abbey on Butler", "business_id": "LmtAQ2ZUUPVqaZj4L1ESmA", "longitude": -79.9583, "stars": 3.5, "latitude": 40.4739}, {"review_count": 10, "name": "The Goldmark", "business_id": "lrS3zXVORhTMspyvz8KKXA", "longitude": -79.9592, "stars": 3.5, "latitude": 40.4727}, {"review_count": 12, "name": "The Jaggerbush", "business_id": "Lv1_fwBrCe4RL06mY9JniQ", "longitude": -79.9729, "stars": 4.0, "latitude": 40.4266}, {"review_count": 179, "name": "Emilliano's Mexican Restaurant and Bar", "business_id": "LvdvLtCbAriMJp6cjLm9EA", "longitude": -79.9686, "stars": 3.5, "latitude": 40.4277}, {"review_count": 42, "name": "Thunderbird Cafe", "business_id": "lVq2xqwCnccZ3oI5CdAD5Q", "longitude": -79.9618, "stars": 3.5, "latitude": 40.4695}, {"review_count": 23, "name": "TGI Fridays", "business_id": "m0FLMyymdBRHin2xaTqkLw", "longitude": -79.9905, "stars": 2.5, "latitude": 40.4388}, {"review_count": 9, "name": "Z:Lounge", "business_id": "m6N_2Slp1QLZc4aM8SF2xQ", "longitude": -79.9758, "stars": 4.0, "latitude": 40.4282}, {"review_count": 103, "name": "The Allegheny Wine Mixer", "business_id": "MALVwbgb3rS4GBu9tGlNUg", "longitude": -79.9515, "stars": 4.5, "latitude": 40.4825}, {"review_count": 49, "name": "Altar Bar", "business_id": "MeZFfo0MhmZdnK7tXI9oPg", "longitude": -79.9867, "stars": 3.0, "latitude": 40.449}, {"review_count": 170, "name": "Tender Bar & Kitchen", "business_id": "mGoHakt3WsXA-dVC-9g33g", "longitude": -79.96, "stars": 3.5, "latitude": 40.4706}, {"review_count": 41, "name": "Hog's Head Bar & Grill", "business_id": "MHt5qfGbk3-eteC7yS4K2Q", "longitude": -79.996, "stars": 4.5, "latitude": 40.4824}, {"review_count": 7, "name": "Fresh From The Farm Juices", "business_id": "miuDBWI4ZWiv4AKmP-vZxg", "longitude": -79.9849, "stars": 4.5, "latitude": 40.4294}, {"review_count": 5, "name": "Bar Louie", "business_id": "MnULXfywcypKNfecSLipgg", "longitude": -79.9785, "stars": 3.5, "latitude": 40.4451}, {"review_count": 78, "name": "Bloomfield Bridge Tavern", "business_id": "MonRZXpZ1vbBtw-q9bfGug", "longitude": -79.9526, "stars": 4.0, "latitude": 40.4633}, {"review_count": 127, "name": "Little Tokyo", "business_id": "mPlWLIA4pkHMRtlQDm6UyQ", "longitude": -80.0445, "stars": 4.0, "latitude": 40.3818}, {"review_count": 8, "name": "The Korner Pub", "business_id": "mugOAOmylJu5p85Jz_zqOQ", "longitude": -80.044, "stars": 4.5, "latitude": 40.387}, {"review_count": 8, "name": "Ordinary Joe's", "business_id": "MVIFPx1kRXlSGBNzm4vPiQ", "longitude": -79.9044, "stars": 3.5, "latitude": 40.4903}, {"review_count": 5, "name": "Local Press Juicery", "business_id": "mx7IvgOdBoKFITfOcmnlHg", "longitude": -79.9959, "stars": 4.5, "latitude": 40.4406}, {"review_count": 56, "name": "Packs & Dogs", "business_id": "MyGH3O8q053OoJm5JikCRg", "longitude": -80.0071, "stars": 4.0, "latitude": 40.4299}, {"review_count": 3, "name": "Evergreen Cafe", "business_id": "mZbgvo7e-1mJ6tSCNX7LOw", "longitude": -79.8985, "stars": 4.5, "latitude": 40.4482}, {"review_count": 14, "name": "Take A Break Bar", "business_id": "n8rQ_lKAaLR0NY7YOHVI1g", "longitude": -79.9603, "stars": 3.5, "latitude": 40.4648}, {"review_count": 10, "name": "31st Street Pub", "business_id": "nc1FeztHnMIN1C-NShjeGQ", "longitude": -79.9714, "stars": 4.5, "latitude": 40.4601}, {"review_count": 50, "name": "The Hop House", "business_id": "NczaqzFtDId9GmVTy2GWHg", "longitude": -80.0667, "stars": 3.0, "latitude": 40.4211}, {"review_count": 14, "name": "BRiX Wood Fired Wine Bar", "business_id": "ne8o0APyK1CL_BLhDGbRsQ", "longitude": -80.0167, "stars": 3.5, "latitude": 40.452}, {"review_count": 463, "name": "Primanti Bros.", "business_id": "NeUf9FyCCIN4MEseNyqkXQ", "longitude": -80.0026, "stars": 3.5, "latitude": 40.4403}, {"review_count": 75, "name": "Hard Rock Cafe", "business_id": "NFXC7M5LJV8Hz9MfI6LybA", "longitude": -80.0046, "stars": 3.0, "latitude": 40.4337}, {"review_count": 15, "name": "Brookline Pub", "business_id": "nilhvDCyVBuv7gnNkPWZQg", "longitude": -80.0206, "stars": 3.5, "latitude": 40.394}, {"review_count": 48, "name": "La Casa", "business_id": "nLTV6CNMZaPeV62T5PF_LA", "longitude": -79.928, "stars": 2.5, "latitude": 40.4579}, {"review_count": 3, "name": "Sushi House", "business_id": "nmWcWnQkK3vr457vBS4wTw", "longitude": -79.9235, "stars": 3.5, "latitude": 40.4327}, {"review_count": 108, "name": "Smallman Galley", "business_id": "nPvwk6NW7j-nbvUzCh94lw", "longitude": -79.9837, "stars": 4.0, "latitude": 40.4522}, {"review_count": 18, "name": "Winghart's Burger & Whiskey Bar", "business_id": "nP_-BYWSPNEeVY7L2tSojw", "longitude": -79.9576, "stars": 3.0, "latitude": 40.4397}, {"review_count": 18, "name": "Static", "business_id": "Nr9d_ciLwQ2lGpcAHL0zQw", "longitude": -79.9888, "stars": 3.5, "latitude": 40.449}, {"review_count": 60, "name": "Revel + Roost", "business_id": "nRjFvEv8A6bKVqzvn6S2HA", "longitude": -80.0016, "stars": 4.0, "latitude": 40.4402}, {"review_count": 127, "name": "Brillobox", "business_id": "nsZrRPXIfEm2Gyd3nZRyXA", "longitude": -79.9548, "stars": 3.5, "latitude": 40.4655}, {"review_count": 41, "name": "Senti", "business_id": "nTPnejWVdbNkXRaPCJVDAQ", "longitude": -79.9664, "stars": 3.5, "latitude": 40.4642}, {"review_count": 377, "name": "Industry Public House", "business_id": "Nui7Cnhrhrm4Ar2rcSHbIA", "longitude": -79.9603, "stars": 3.5, "latitude": 40.4708}, {"review_count": 22, "name": "Element", "business_id": "nweN3oA0Ao3I9sPZmWwexQ", "longitude": -79.9311, "stars": 3.5, "latitude": 40.4557}, {"review_count": 24, "name": "The Smokehouse Bar & Grill", "business_id": "nwVGjLVWCzmX5hm8xI2O2A", "longitude": -80.0255, "stars": 3.5, "latitude": 40.3992}, {"review_count": 43, "name": "Birmingham Bridge Tavern", "business_id": "o7ZA6Oh_p1x7FZEE8vJIJw", "longitude": -79.9646, "stars": 4.0, "latitude": 40.4245}, {"review_count": 10, "name": "Pope's Place", "business_id": "o8rfoxD5KyMUNxeWIaJhJw", "longitude": -79.9677, "stars": 4.5, "latitude": 40.4567}, {"review_count": 13, "name": "Mixtape", "business_id": "OgsDmWHsTAjiaGjl49o-Gw", "longitude": -79.9448, "stars": 4.5, "latitude": 40.4655}, {"review_count": 59, "name": "Hambone's Pub", "business_id": "Oi8IOoJOEX9JZYK65fUrrA", "longitude": -79.9604, "stars": 3.5, "latitude": 40.4705}, {"review_count": 11, "name": "Perspolis Hookah Lounge", "business_id": "OIrKSV2jHSYGmS0FqAW5nw", "longitude": -79.952, "stars": 5.0, "latitude": 40.4523}, {"review_count": 6, "name": "Champions Club", "business_id": "oJ96C5zZB5NBCxaCABv3sw", "longitude": -80.0591, "stars": 3.5, "latitude": 40.4183}, {"review_count": 377, "name": "Union Pig & Chicken", "business_id": "oJwy0ELke7wS6WsztypYwQ", "longitude": -79.9241, "stars": 3.5, "latitude": 40.463}, {"review_count": 14, "name": "Dominic's", "business_id": "OM_tt_pJco4sa-QHAx7UMQ", "longitude": -80.0042, "stars": 3.0, "latitude": 40.4481}, {"review_count": 254, "name": "The Commoner", "business_id": "OOsoeJIwsfHyC8sFmJSPpA", "longitude": -79.9962, "stars": 3.5, "latitude": 40.4417}, {"review_count": 21, "name": "Doc's Place", "business_id": "Oq5MyNxNi-xuXdPOWR9O_g", "longitude": -79.9338, "stars": 3.0, "latitude": 40.4509}, {"review_count": 30, "name": "Delicious Raw", "business_id": "otc6dTixHIDPHnZRgVIUzA", "longitude": -80.0009, "stars": 3.5, "latitude": 40.4401}, {"review_count": 12, "name": "Pittsburgh Sports Bar & Grill", "business_id": "ov7YsASN1XDdJL0ntXk6tA", "longitude": -80.0187, "stars": 3.5, "latitude": 40.3651}, {"review_count": 26, "name": "Ruggers Pub", "business_id": "OWiX_AZ7hTRwTpA8kQL6Jw", "longitude": -79.9746, "stars": 4.0, "latitude": 40.4301}, {"review_count": 202, "name": "Olive or Twist", "business_id": "OxIeMVcop5oxBUWANi-1Rw", "longitude": -80.0026, "stars": 3.5, "latitude": 40.4429}, {"review_count": 9, "name": "Se\u00f1or Frogs", "business_id": "OzvqQ7b9MKUmAFznAE0V8g", "longitude": -80.0256, "stars": 3.0, "latitude": 40.3991}, {"review_count": 5, "name": "Baja Bar & Grill", "business_id": "ozyBhDBzZg8TRtHIP1wWUw", "longitude": -79.8731, "stars": 2.5, "latitude": 40.4859}, {"review_count": 5, "name": "Havana", "business_id": "PBw1_DSuQBQYDUJ_npPIJw", "longitude": -80.0076, "stars": 3.5, "latitude": 40.4307}, {"review_count": 17, "name": "Applebee's", "business_id": "PFAOxw4Gl8gm7PGWvohCWg", "longitude": -80.0709, "stars": 3.0, "latitude": 40.3904}, {"review_count": 6, "name": "Cafe Nikos", "business_id": "PFJKMFteg0bdyLAkHx_b9g", "longitude": -80.0076, "stars": 3.0, "latitude": 40.4303}, {"review_count": 16, "name": "Cup ka Joe", "business_id": "PJmNg6ahKgd53gOLBvSZjg", "longitude": -79.9673, "stars": 4.5, "latitude": 40.4264}, {"review_count": 3, "name": "Donny's Place", "business_id": "Pkm9lciseEmE-Y3wiPtlaQ", "longitude": -79.9656, "stars": 3.0, "latitude": 40.4592}, {"review_count": 147, "name": "Local Bar + Kitchen", "business_id": "pMBxvWFY03Z95jNVUVWGwg", "longitude": -79.9828, "stars": 3.0, "latitude": 40.429}, {"review_count": 115, "name": "STACK'D Burgers & Beer", "business_id": "PmGgA12IFDwedPDAjesx3Q", "longitude": -79.9351, "stars": 3.5, "latitude": 40.4511}, {"review_count": 5, "name": "Bobby's Lounge", "business_id": "ppv7AJFnTxNGhlktLaCLiw", "longitude": -79.9835, "stars": 3.0, "latitude": 40.3752}, {"review_count": 11, "name": "Planet Smoothie", "business_id": "PQWrBAXEVtC5Q9eqdyl87w", "longitude": -79.9319, "stars": 3.0, "latitude": 40.4517}, {"review_count": 3, "name": "Applebee's", "business_id": "PRERLYDy36PSnpJlgrkAMA", "longitude": -79.889, "stars": 2.5, "latitude": 40.4263}, {"review_count": 3, "name": "Boulevard Lounge", "business_id": "PscxgmrteHI-6qdI-vIm5g", "longitude": -80.014, "stars": 4.5, "latitude": 40.392}, {"review_count": 62, "name": "The BeerHive", "business_id": "PUS65BH7urto4zhUJ5Obmw", "longitude": -79.9828, "stars": 3.5, "latitude": 40.4522}, {"review_count": 16, "name": "Grille 565", "business_id": "pxh4yt-TYwk77GFL1x3z5w", "longitude": -79.9081, "stars": 4.0, "latitude": 40.4616}, {"review_count": 9, "name": "Drift Hookah Lounge", "business_id": "pYJyzyeRdTe3hVBgEZvQvA", "longitude": -79.9234, "stars": 4.5, "latitude": 40.4317}, {"review_count": 16, "name": "Open Bottle Bistro", "business_id": "q19XuU23LSZsFyR2-3IC_w", "longitude": -79.9279, "stars": 3.5, "latitude": 40.4577}, {"review_count": 927, "name": "Primanti Bros.", "business_id": "Q4ULAiIE2qCA4RYplCTrUQ", "longitude": -79.9855, "stars": 3.5, "latitude": 40.4507}, {"review_count": 28, "name": "Salud Juicery", "business_id": "Q59ZOPi3T_O4l2vpt74a8Q", "longitude": -79.9346, "stars": 4.5, "latitude": 40.4512}, {"review_count": 148, "name": "Pizzaiolo Primo", "business_id": "QBdX_ziDIyshttyAxDnskw", "longitude": -80.0022, "stars": 3.5, "latitude": 40.4403}, {"review_count": 93, "name": "Bado's Pizza Grill and Ale House", "business_id": "qemCNgjeYGcFsRwxW9x4xw", "longitude": -80.0499, "stars": 3.5, "latitude": 40.3886}, {"review_count": 3, "name": "Sloppy Joe's", "business_id": "QF8LfL5rJbb0T81oIvri8Q", "longitude": -80.0073, "stars": 1.5, "latitude": 40.4302}, {"review_count": 13, "name": "Bootleggers", "business_id": "qHEZCMNrGxadWGjluAfNTw", "longitude": -79.9548, "stars": 2.5, "latitude": 40.437}, {"review_count": 20, "name": "Nied's Hotel", "business_id": "QHI_sBKISzQsDMp2cXBXjQ", "longitude": -79.95, "stars": 3.5, "latitude": 40.4835}, {"review_count": 34, "name": "Tipsy Cow", "business_id": "QJgRZ0kTjvUSvmIm-3AEsQ", "longitude": -79.9315, "stars": 3.5, "latitude": 40.4558}, {"review_count": 3, "name": "Vasta", "business_id": "QjMZ3Gt4c-vS2uVUWQrVbw", "longitude": -80.0351, "stars": 2.5, "latitude": 40.3943}, {"review_count": 19, "name": "Excuses Bar & Grill", "business_id": "qM1kLyu2xAiFZdgnbTyHjA", "longitude": -79.9688, "stars": 4.0, "latitude": 40.4273}, {"review_count": 5, "name": "Fireside Inn", "business_id": "qnObfZkpvnsZv1l8zScrdA", "longitude": -80.0891, "stars": 4.0, "latitude": 40.4399}, {"review_count": 23, "name": "Sushi Three", "business_id": "QnyzlVMyx0Exri-Lay10cA", "longitude": -80.0494, "stars": 3.5, "latitude": 40.3886}, {"review_count": 31, "name": "John's Chinese & Sushi Restaurant", "business_id": "QOwoKLXHMyeDaD5996Z9hg", "longitude": -80.0519, "stars": 4.0, "latitude": 40.3527}, {"review_count": 30, "name": "Garage Door Saloon", "business_id": "qQkEmvb5uKcPFPGxx5WQqQ", "longitude": -79.9573, "stars": 3.0, "latitude": 40.4408}, {"review_count": 32, "name": "Hidden Harbor", "business_id": "QsNK6QqpxkXClEfIOj4OCg", "longitude": -79.9194, "stars": 4.5, "latitude": 40.4377}, {"review_count": 97, "name": "Beerhead Bar", "business_id": "QTwovOzlu7qIB8CBGm6luw", "longitude": -80.0041, "stars": 4.0, "latitude": 40.448}, {"review_count": 4, "name": "East End Brewing Taproom", "business_id": "r0gLTfzviwZcb_2VXugYEQ", "longitude": -79.9849, "stars": 4.5, "latitude": 40.4509}, {"review_count": 36, "name": "Belvedere's", "business_id": "r39QI50sfpVK1XpBVJpAIA", "longitude": -79.9617, "stars": 3.5, "latitude": 40.4691}, {"review_count": 334, "name": "Proper Brick Oven & Tap Room", "business_id": "r9rub_ajcb-3yYsYYD5apw", "longitude": -80.0003, "stars": 4.0, "latitude": 40.4436}, {"review_count": 234, "name": "Nakama", "business_id": "rellBaGc6G4mgcqSACGL5w", "longitude": -79.9822, "stars": 3.0, "latitude": 40.429}, {"review_count": 6, "name": "Drum Bar", "business_id": "REMGt42x3asARab0jGdBZQ", "longitude": -80.0231, "stars": 3.5, "latitude": 40.4466}, {"review_count": 262, "name": "Harris Grill", "business_id": "rgmptwPbBH1wLpiBHcbIhA", "longitude": -79.9313, "stars": 3.5, "latitude": 40.456}, {"review_count": 43, "name": "Umami", "business_id": "rOcpQr8G04auCq3RmvGDig", "longitude": -79.9642, "stars": 4.0, "latitude": 40.4668}, {"review_count": 463, "name": "Hofbrauhaus Pittsburgh", "business_id": "rR_szXNwNQB-MgEoTElb8Q", "longitude": -79.9645, "stars": 4.0, "latitude": 40.4288}, {"review_count": 20, "name": "Silky's Crows Nest", "business_id": "s413DgLtzhUSfs0t5USPFg", "longitude": -79.8517, "stars": 2.0, "latitude": 40.4981}, {"review_count": 3, "name": "Walker's Pub", "business_id": "s49iLAI_RF_Aq8ok6Px3xQ", "longitude": -79.9767, "stars": 3.5, "latitude": 40.4274}, {"review_count": 11, "name": "Skybar Pittsburgh", "business_id": "sarzN0hejeOKnsv7QJf_bw", "longitude": -79.9825, "stars": 2.5, "latitude": 40.429}, {"review_count": 29, "name": "Bossa Nova", "business_id": "sbTF0cLKZH6_BP8BLARVDg", "longitude": -80.0006, "stars": 2.5, "latitude": 40.4439}, {"review_count": 269, "name": "Piper's Pub", "business_id": "sF8rL9XOz4v48YdTucaBGQ", "longitude": -79.9794, "stars": 4.5, "latitude": 40.4284}, {"review_count": 36, "name": "Streets On Carson", "business_id": "Sp3X1FWJiSmk-ofEoMFktA", "longitude": -79.9866, "stars": 4.5, "latitude": 40.4286}, {"review_count": 37, "name": "Spirit Lodge", "business_id": "sr8aZbdA6XMS5QorEQfc1g", "longitude": -79.9557, "stars": 4.0, "latitude": 40.4783}, {"review_count": 17, "name": "Real Luck Cafe", "business_id": "SRMXro-r3Q9SXT2Lpmrv7Q", "longitude": -79.9882, "stars": 3.0, "latitude": 40.4487}, {"review_count": 18, "name": "The South Paw", "business_id": "SubB7jLPQke_aVbmKW3klQ", "longitude": -79.9741, "stars": 4.5, "latitude": 40.4282}, {"review_count": 3, "name": "Mt Troy Inn", "business_id": "SUrKsPgkuhimZPjq3hjzQw", "longitude": -79.9823, "stars": 3.5, "latitude": 40.4698}, {"review_count": 61, "name": "Lava Lounge", "business_id": "sXPWMe-tQVP-XEEXtm9C5w", "longitude": -79.9743, "stars": 4.0, "latitude": 40.4282}, {"review_count": 3, "name": "Garvey's", "business_id": "t7yKrjterbH4goSDCIEZcA", "longitude": -79.9736, "stars": 4.5, "latitude": 40.4233}, {"review_count": 17, "name": "Restaurant Hana", "business_id": "tEMavUDVVAsfaPKMwzRHZA", "longitude": -79.9599, "stars": 4.0, "latitude": 40.4718}, {"review_count": 12, "name": "Lou's Little Corner Bar", "business_id": "TFvwZutGJS3LfNA7NKbJKg", "longitude": -79.9452, "stars": 4.0, "latitude": 40.4593}, {"review_count": 48, "name": "Le Mardi Gras", "business_id": "TIPebazlAGJsp8zAwhNkcw", "longitude": -79.9346, "stars": 4.0, "latitude": 40.4513}, {"review_count": 28, "name": "Pi Coal Fired Pizza", "business_id": "tJjC4MA0H_nWZUBpvgtLxw", "longitude": -79.9816, "stars": 3.5, "latitude": 40.4291}, {"review_count": 19, "name": "Truth Lounge", "business_id": "tNGGIe6YTSkoHFHof32HdQ", "longitude": -79.9863, "stars": 3.5, "latitude": 40.429}, {"review_count": 25, "name": "Blue Moon", "business_id": "Tq1wUIy82ZgorYSCT8VDBQ", "longitude": -79.9557, "stars": 4.0, "latitude": 40.4789}, {"review_count": 24, "name": "Nico's Recovery Room", "business_id": "tQpYnf3P3Q_OQLYYJvlV-A", "longitude": -79.949, "stars": 3.5, "latitude": 40.4637}, {"review_count": 62, "name": "Buffalo Blues", "business_id": "Ts4xsKPU7FNPPZRj-nRjIg", "longitude": -79.9255, "stars": 3.0, "latitude": 40.4584}, {"review_count": 16, "name": "Pizza Sola", "business_id": "tTVe5wrzCVEMPzBNmdgM3A", "longitude": -79.9581, "stars": 3.5, "latitude": 40.4415}, {"review_count": 21, "name": "Cattivo", "business_id": "tUuHLgPKuEVg_mdzfrVY8w", "longitude": -79.9617, "stars": 4.0, "latitude": 40.4725}, {"review_count": 81, "name": "Kiku Japanese Restaurant", "business_id": "tygo8BbCFwGFxIitgTp_zQ", "longitude": -80.0061, "stars": 4.0, "latitude": 40.4341}, {"review_count": 169, "name": "The Capital Grille", "business_id": "U3AUN4Azkm76qsEaWqOCEw", "longitude": -80.0, "stars": 4.0, "latitude": 40.4407}, {"review_count": 80, "name": "BZ's Bar and Grill", "business_id": "U3FZfxY-g6SgQf5ZT6oU0Q", "longitude": -80.0038, "stars": 3.0, "latitude": 40.4481}, {"review_count": 91, "name": "Ginza", "business_id": "U5oM7F_XUWMiTqto7tcPVw", "longitude": -79.9488, "stars": 4.0, "latitude": 40.4613}, {"review_count": 4, "name": "Levelz", "business_id": "UawKKwXc3Fw7bxsAS8HqEg", "longitude": -79.9795, "stars": 1.0, "latitude": 40.429}, {"review_count": 39, "name": "Cambria hotel & suites Pittsburgh - Downtown", "business_id": "uCDUZlheKW_SA_qHvli8_Q", "longitude": -79.9879, "stars": 4.0, "latitude": 40.4401}, {"review_count": 23, "name": "Grapperia", "business_id": "Ud5jcf7s_wTKO-Rbv__Rhw", "longitude": -79.9644, "stars": 4.5, "latitude": 40.467}, {"review_count": 115, "name": "Jade Grille", "business_id": "uEv5oBGUSSiuLqSbbHQQ8A", "longitude": -80.0448, "stars": 4.0, "latitude": 40.3805}, {"review_count": 22, "name": "Starlite Lounge", "business_id": "ufyh6h4GsR-RYY2lC_Iz7w", "longitude": -79.8603, "stars": 3.0, "latitude": 40.494}, {"review_count": 27, "name": "Stack'd Burgers & Beer", "business_id": "Ug-Kof6Od43fubcwZePMFA", "longitude": -79.9569, "stars": 3.0, "latitude": 40.4413}, {"review_count": 10, "name": "Krista's Cantina", "business_id": "Uky_NVoeKq36M7PVX_3Mjw", "longitude": -80.0344, "stars": 4.5, "latitude": 40.4671}, {"review_count": 9, "name": "Michael's Restaurant & Lounge", "business_id": "UmX2QDgm02TsWO1-d8elTQ", "longitude": -79.9674, "stars": 2.0, "latitude": 40.3856}, {"review_count": 7, "name": "Shadyside Saloon", "business_id": "UnxC_75OQ3hS4bB_onepOw", "longitude": -79.9315, "stars": 3.0, "latitude": 40.4558}, {"review_count": 102, "name": "The Smiling Moose", "business_id": "UrS9awRtye1YFlW5V1bWzw", "longitude": -79.9849, "stars": 4.0, "latitude": 40.4286}, {"review_count": 91, "name": "Sushi Too", "business_id": "uUj-mziX-qv0e1k0jkpI7g", "longitude": -79.9341, "stars": 3.0, "latitude": 40.4508}, {"review_count": 41, "name": "Jack's  Bar", "business_id": "uuz1Um4FzxNxqBMgffSPJw", "longitude": -79.9867, "stars": 4.0, "latitude": 40.4288}, {"review_count": 112, "name": "Primanti Bros.", "business_id": "uvdS1a6h0wS0R9gryFX4oQ", "longitude": -79.9793, "stars": 3.5, "latitude": 40.4285}, {"review_count": 3, "name": "XO Cafe & Lounge", "business_id": "uwR6XBswcGXgK_3KDfGSLQ", "longitude": -79.9588, "stars": 3.0, "latitude": 40.4322}, {"review_count": 457, "name": "Sienna Mercato", "business_id": "UXlGymo9AduQcq-Q-H16og", "longitude": -79.9964, "stars": 4.0, "latitude": 40.444}, {"review_count": 36, "name": "Maggie's Farm Rum", "business_id": "UXnIsrsRof-fx8RYTXjxHg", "longitude": -79.9701, "stars": 4.5, "latitude": 40.4618}, {"review_count": 42, "name": "Pallantia Tapas de Espa\u00f1a", "business_id": "uXzbEekNZvexah66ISaQeA", "longitude": -79.9323, "stars": 4.0, "latitude": 40.4512}, {"review_count": 32, "name": "Mitchell's Restaurant Bar & Banquet Center", "business_id": "UyukMaDB26gg2wY5olV6UQ", "longitude": -79.9965, "stars": 3.5, "latitude": 40.4371}, {"review_count": 3, "name": "Sam Adams Celebrates Pittsburgh", "business_id": "v-y7cV0-ChxQp_5TyZ-KTg", "longitude": -79.994, "stars": 3.0, "latitude": 40.4427}, {"review_count": 10, "name": "AVA Bar & Lounge", "business_id": "Vk6RdQf4fOeaNx1uUVmELg", "longitude": -79.925, "stars": 4.0, "latitude": 40.4603}, {"review_count": 7, "name": "Peanutz", "business_id": "vMCCvnDU-Iz_D_pmbcMqzA", "longitude": -80.0012, "stars": 2.5, "latitude": 40.4535}, {"review_count": 6, "name": "The Hkan Hookah Bar", "business_id": "VOHbBqOW3Q_sgGA14clGWA", "longitude": -79.974, "stars": 3.5, "latitude": 40.4283}, {"review_count": 27, "name": "The Pittsburgh Juice Co", "business_id": "vPQPsC_NkQPKDs5ljbgB3A", "longitude": -79.9665, "stars": 4.0, "latitude": 40.4629}, {"review_count": 5, "name": "Gorman's Pub", "business_id": "vR3hMqaaOCjmgJg91SpA4w", "longitude": -79.9829, "stars": 4.5, "latitude": 40.3754}, {"review_count": 39, "name": "BeanThru", "business_id": "vsAxFICzxvaQv7Jjj52Jqw", "longitude": -80.0549, "stars": 4.5, "latitude": 40.4866}, {"review_count": 61, "name": "William Penn Tavern", "business_id": "vSZDiKiF8vf9zt_BcDL7GQ", "longitude": -79.9337, "stars": 3.5, "latitude": 40.4514}, {"review_count": 23, "name": "Sushi & Rolls", "business_id": "W0YoIQCjKGcEuAxjl2u8Ng", "longitude": -79.9983, "stars": 4.5, "latitude": 40.4381}, {"review_count": 113, "name": "Sushi Fuku", "business_id": "w76Ekjp9CY6cQ6Lamh9fSw", "longitude": -79.9574, "stars": 4.0, "latitude": 40.4417}, {"review_count": 17, "name": "Huddle", "business_id": "wan0X-oHpLgGTPXqaICZCw", "longitude": -80.025, "stars": 4.0, "latitude": 40.4091}, {"review_count": 11, "name": "Tailgaters Bar & Grill", "business_id": "wBknEHf8gbKCWWEboul8ZQ", "longitude": -79.9865, "stars": 3.0, "latitude": 40.4403}, {"review_count": 124, "name": "Diamond Market Bar & Grill", "business_id": "wc6MUrDdAtQLqKUDn4F0ew", "longitude": -80.0022, "stars": 3.5, "latitude": 40.441}, {"review_count": 94, "name": "Tilted Kilt Pub & Eatery", "business_id": "WcfPijF960O8DtSqoLIbcw", "longitude": -80.0109, "stars": 2.0, "latitude": 40.4458}, {"review_count": 73, "name": "Grandview Saloon", "business_id": "wgSCc7Ut2C4OkmvoeSLIrQ", "longitude": -80.0185, "stars": 3.5, "latitude": 40.4381}, {"review_count": 9, "name": "Burg's in the Burgh", "business_id": "wi2JCjaEob10YvC2TbTxhQ", "longitude": -79.9951, "stars": 4.0, "latitude": 40.4377}, {"review_count": 39, "name": "The Modern Cafe", "business_id": "wiE3gpPOMJO-ujhmAUb73A", "longitude": -80.0164, "stars": 4.0, "latitude": 40.4521}, {"review_count": 96, "name": "Rivertowne", "business_id": "WjLtEWGvPSIfwMZXUMHX8g", "longitude": -80.0108, "stars": 3.0, "latitude": 40.446}, {"review_count": 21, "name": "Full Pint Wild Side", "business_id": "wJNJ4sv7IQZQAvG3Xgz5mg", "longitude": -79.9521, "stars": 4.0, "latitude": 40.4823}, {"review_count": 4, "name": "ControVerSy", "business_id": "wLL9UbF29xi6C0Klh0QnfQ", "longitude": -80.0236, "stars": 3.0, "latitude": 40.4423}, {"review_count": 130, "name": "Kelly's Bar & Lounge", "business_id": "woJbuuWU7zyXA63YV3p0gg", "longitude": -79.9244, "stars": 3.5, "latitude": 40.4599}, {"review_count": 4, "name": "Tad's On East Carson", "business_id": "WRogsydvQIIqa5aYzwvXnA", "longitude": -79.987, "stars": 2.5, "latitude": 40.4288}, {"review_count": 90, "name": "Sakura Teppanyaki & Sushi", "business_id": "wvQC4HnaIpkIDs0mDrL0Pw", "longitude": -79.9197, "stars": 3.0, "latitude": 40.4378}, {"review_count": 24, "name": "Doubleday's", "business_id": "WX3qnzlSas7kYZ5-uI30Bw", "longitude": -80.0022, "stars": 3.5, "latitude": 40.4436}, {"review_count": 11, "name": "Images Bar", "business_id": "WzQrtfz7DSQEv2CK82zhcg", "longitude": -79.9957, "stars": 3.5, "latitude": 40.4438}, {"review_count": 371, "name": "Winghart's Burger & Whiskey Bar", "business_id": "X7844DdJO4y2oVbcpxD-NA", "longitude": -80.0024, "stars": 4.0, "latitude": 40.4401}, {"review_count": 6, "name": "Cj's", "business_id": "XFnacCY_kpQhtPqbc997gQ", "longitude": -79.9738, "stars": 3.0, "latitude": 40.4582}, {"review_count": 5, "name": "Amazon Cafe", "business_id": "xgSPC01GJlxgj_PILhaCjQ", "longitude": -79.9962, "stars": 4.5, "latitude": 40.4405}, {"review_count": 5, "name": "Kimmie's Lounge & Restaurant", "business_id": "xhBvweiwtVMEnqkMR73VbQ", "longitude": -80.0247, "stars": 2.0, "latitude": 40.3659}, {"review_count": 5, "name": "Cips Sports Bar", "business_id": "XHTsgW1ViMHMyIVcuQ7B4A", "longitude": -80.0372, "stars": 3.0, "latitude": 40.3927}, {"review_count": 40, "name": "Totopo Mexican Kitchen and Bar", "business_id": "XI13cv4463bz2tluEWgbPA", "longitude": -80.0445, "stars": 3.5, "latitude": 40.381}, {"review_count": 6, "name": "Logan's Pub", "business_id": "xKoTdBxoSr08IJKq0WASqw", "longitude": -79.9523, "stars": 3.0, "latitude": 40.4519}, {"review_count": 204, "name": "Bar Marco", "business_id": "xl1mNGpaoLdiVWj_D6-L_A", "longitude": -79.9816, "stars": 4.0, "latitude": 40.4525}, {"review_count": 3, "name": "Il Mercato", "business_id": "xLHoIzaExmTif3Bc5rgJFA", "longitude": -79.9828, "stars": 3.5, "latitude": 40.4544}, {"review_count": 317, "name": "Lidia's", "business_id": "XmdTkxKyJd7TuDLoiic1kg", "longitude": -79.9894, "stars": 3.5, "latitude": 40.4485}, {"review_count": 7, "name": "Coppertops", "business_id": "XpegQQruI5HSoQk7smiugQ", "longitude": -79.9749, "stars": 3.0, "latitude": 40.4282}, {"review_count": 5, "name": "Double L", "business_id": "XRvFD9cIHZBRJgqpxVf0-g", "longitude": -79.9723, "stars": 4.0, "latitude": 40.4794}, {"review_count": 12, "name": "Wheelhouse Bar & Grill", "business_id": "xu7PDGbHRp7f3cLYGhHrAg", "longitude": -80.0222, "stars": 3.0, "latitude": 40.4472}, {"review_count": 95, "name": "Carson Street Deli & Craft Beer Bar", "business_id": "xvGD0kqem6jJnbMs8_W4Uw", "longitude": -79.9831, "stars": 4.5, "latitude": 40.429}, {"review_count": 218, "name": "Penn Ave Fish Company", "business_id": "XY3aIm-0PZMXXkVKECD7uw", "longitude": -79.9818, "stars": 4.0, "latitude": 40.4523}, {"review_count": 16, "name": "Brewski's", "business_id": "Y9krCILoQVmT6v8X6gLltg", "longitude": -79.9909, "stars": 4.5, "latitude": 40.4289}, {"review_count": 8, "name": "Fanattics", "business_id": "yDBfRK6lg23-4yKjwU0hHQ", "longitude": -79.9193, "stars": 4.0, "latitude": 40.4378}, {"review_count": 4, "name": "Double D Saloon", "business_id": "ye4l3M275YrEIz4GREXdpw", "longitude": -79.961, "stars": 2.5, "latitude": 40.4702}, {"review_count": 45, "name": "Dijlah Restaurant", "business_id": "yhzRoqJrDYku_48CFfi0ig", "longitude": -79.9605, "stars": 4.0, "latitude": 40.4701}, {"review_count": 240, "name": "Luke Wholey's Wild Alaskan Grille", "business_id": "Yj1EJ_HDLtw7wLcdpmaY9w", "longitude": -79.9828, "stars": 4.0, "latitude": 40.4519}, {"review_count": 13, "name": "Simple Ingredients", "business_id": "yJ_k2f-h9LxjWdbMMqzpsA", "longitude": -79.9995, "stars": 4.0, "latitude": 40.4426}, {"review_count": 4, "name": "Porky's Plain Old Bar", "business_id": "YLyzK5m7DAnvPaaKhQogrg", "longitude": -79.9427, "stars": 3.5, "latitude": 40.4971}, {"review_count": 101, "name": "Penn Avenue Fish Company", "business_id": "YOMMA4fsL4_SaPaPyA7sFg", "longitude": -80.0005, "stars": 3.5, "latitude": 40.4399}, {"review_count": 41, "name": "Scratch Food & Beverage", "business_id": "YOvCez-P5HPTJ407l1JC2Q", "longitude": -79.9823, "stars": 3.5, "latitude": 40.4645}, {"review_count": 11, "name": "Finnigan's Wake", "business_id": "YQeMF7q6xJ61v_OvAMDSlg", "longitude": -80.0034, "stars": 2.5, "latitude": 40.4488}, {"review_count": 61, "name": "The Park House", "business_id": "YRDKsBFYP7G0E8BLJKIkvA", "longitude": -80.0014, "stars": 4.0, "latitude": 40.4531}, {"review_count": 5, "name": "One 10 Lounge", "business_id": "yuJB3PLktByh4OpwrSD7-w", "longitude": -80.0001, "stars": 3.0, "latitude": 40.4374}, {"review_count": 40, "name": "Cavo Nightclub", "business_id": "ywbiQCZnCrK8A4K9TkWVTw", "longitude": -79.985, "stars": 3.5, "latitude": 40.4515}, {"review_count": 69, "name": "Smokin' Joe's", "business_id": "y_jsnI8NUThDecWmgL_soA", "longitude": -79.9776, "stars": 4.0, "latitude": 40.4286}, {"review_count": 4, "name": "Mt. Lebanon Pub & Pizza", "business_id": "Z0hE9B9YbaVVOPPrxKklOA", "longitude": -80.0367, "stars": 4.0, "latitude": 40.3761}, {"review_count": 182, "name": "Chaya Japanese Cuisine", "business_id": "Z94doPdgyDOgjtYUVRBNjQ", "longitude": -79.9231, "stars": 4.0, "latitude": 40.4339}, {"review_count": 4, "name": "Slapshots", "business_id": "za5fND9-pXyVSk5rM28MsQ", "longitude": -80.0366, "stars": 2.0, "latitude": 40.393}, {"review_count": 7, "name": "Midnight Cafe", "business_id": "zbII8lsdIghmOk-mBByMVQ", "longitude": -79.9886, "stars": 4.5, "latitude": 40.4289}, {"review_count": 28, "name": "Shadow Lounge", "business_id": "ZDKi3qsO8lSSogrIdbLJKg", "longitude": -79.9253, "stars": 4.5, "latitude": 40.4605}, {"review_count": 18, "name": "Villa Southside", "business_id": "zeT6q0x-w3S9fYCDB8Zn2g", "longitude": -79.9793, "stars": 3.0, "latitude": 40.4289}, {"review_count": 9, "name": "P Town", "business_id": "ZkM9pDrD6woooalXHbWs_Q", "longitude": -79.9488, "stars": 3.5, "latitude": 40.4539}, {"review_count": 3, "name": "Kopy's", "business_id": "ZknWrru-_THooBJ6aUqgLg", "longitude": -79.9867, "stars": 3.5, "latitude": 40.4281}, {"review_count": 29, "name": "Olive Garden Italian Restaurant", "business_id": "zpNGtjBlIkDq_PLGSCPlAg", "longitude": -80.0457, "stars": 3.5, "latitude": 40.4198}, {"review_count": 40, "name": "Someone Else's Bar", "business_id": "zQ5rJZ9JOhEOsFYLkO7qUg", "longitude": -80.0261, "stars": 4.0, "latitude": 40.3649}, {"review_count": 5, "name": "Sakari at Monterey Bay", "business_id": "zrV3olEo5d7cKWFbmJ44QA", "longitude": -80.0212, "stars": 3.0, "latitude": 40.4388}, {"review_count": 43, "name": "Silky's Sports Bar & Grill", "business_id": "zsCxklQ4G2WK1xS7GULu3g", "longitude": -79.9226, "stars": 3.5, "latitude": 40.4371}, {"review_count": 268, "name": "Round Corner Cantina", "business_id": "zUzEjxKEn8eNVksImZ2oGw", "longitude": -79.9644, "stars": 3.5, "latitude": 40.4667}, {"review_count": 49, "name": "Peter's Pub", "business_id": "Zww-ckcRf0fvu_yKGFZvPw", "longitude": -79.9575, "stars": 3.0, "latitude": 40.4417}, {"review_count": 23, "name": "Firehouse Lounge", "business_id": "zxXATbR9pH_Ml6nK3kq2bw", "longitude": -79.9817, "stars": 3.5, "latitude": 40.4526}, {"review_count": 4, "name": "Devils & Dolls", "business_id": "ZyGvEwji1ddmECW6tZUwVA", "longitude": -79.9814, "stars": 2.0, "latitude": 40.4291}, {"review_count": 16, "name": "The Blind Pig", "business_id": "zzK7j06Pg8YWkQHzgsTuQA", "longitude": -79.974, "stars": 4.0, "latitude": 40.4283}, {"review_count": 14, "name": "Lefty's", "business_id": "_IlrF3VSd0lnuIS-kC90dg", "longitude": -79.9836, "stars": 4.5, "latitude": 40.4516}, {"review_count": 219, "name": "Primanti Bros.", "business_id": "_KvGddVMM3d2f7NEa_eOtA", "longitude": -79.957, "stars": 3.0, "latitude": 40.4418}, {"review_count": 8, "name": "St James Place Tavern", "business_id": "_NfMlVsN-KY5TMJHHu2wwA", "longitude": -79.9806, "stars": 3.5, "latitude": 40.4262}, {"review_count": 200, "name": "Shiloh Grill", "business_id": "_WaHLgLzALd2iThQAhC-sQ", "longitude": -80.007, "stars": 4.0, "latitude": 40.4309}, {"review_count": 16, "name": "Beer Nutz Bottle Shop", "business_id": "_wmXYLUf4VThpcO9pDxHGg", "longitude": -79.874, "stars": 3.5, "latitude": 40.49}, {"review_count": 15, "name": "Bobby Hendrix Restaurant & Lounge", "business_id": "_z0oAuTO0Jk07sMdoPE8gg", "longitude": -79.9768, "stars": 3.0, "latitude": 40.4288}]